Time,header.seq,header.stamp.secs,header.stamp.nsecs,header.frame_id,orientation.x,orientation.y,orientation.z,orientation.w,orientation_covariance_0,orientation_covariance_1,orientation_covariance_2,orientation_covariance_3,orientation_covariance_4,orientation_covariance_5,orientation_covariance_6,orientation_covariance_7,orientation_covariance_8,angular_velocity.x,angular_velocity.y,angular_velocity.z,angular_velocity_covariance_0,angular_velocity_covariance_1,angular_velocity_covariance_2,angular_velocity_covariance_3,angular_velocity_covariance_4,angular_velocity_covariance_5,angular_velocity_covariance_6,angular_velocity_covariance_7,angular_velocity_covariance_8,linear_acceleration.x,linear_acceleration.y,linear_acceleration.z,linear_acceleration_covariance_0,linear_acceleration_covariance_1,linear_acceleration_covariance_2,linear_acceleration_covariance_3,linear_acceleration_covariance_4,linear_acceleration_covariance_5,linear_acceleration_covariance_6,linear_acceleration_covariance_7,linear_acceleration_covariance_8
1536691717.8656683,1351,1536691717,861806904,base_link,0.022307896235339977,0.01580962945365405,-0.9975057656986315,-0.06507427126044835,1.0,0.0,0.0,0.0,1.0,0.0,0.0,0.0,1.0,-0.20991547405719757,-0.016498651355504986,0.023781841620802883,1.2184696791468346e-07,0.0,0.0,0.0,1.2184696791468346e-07,0.0,0.0,0.0,1.2184696791468346e-07,-0.00980665,0.5295591000000013,10.3165958,8.999999999999999e-08,0.0,0.0,0.0,8.999999999999999e-08,0.0,0.0,0.0,8.999999999999999e-08
1536691718.2671196,1352,1536691718,266740504,base_link,0.008798652000656796,-0.011465416490734757,-0.9981246093630614,-0.059484385610858226,1.0,0.0,0.0,0.0,1.0,0.0,0.0,0.0,1.0,0.6482567191123962,-0.06817824393510818,0.035564467310905463,1.2184696791468346e-07,0.0,0.0,0.0,1.2184696791468346e-07,0.0,0.0,0.0,1.2184696791468346e-07,0.57859235,0.3824593500000014,11.20900095,8.999999999999999e-08,0.0,0.0,0.0,8.999999999999999e-08,0.0,0.0,0.0,8.999999999999999e-08
1536691718.6631503,1353,1536691718,662690904,base_link,-0.011232319892167207,-0.13033188545490848,-0.990133956420501,-0.050221339754072454,1.0,0.0,0.0,0.0,1.0,0.0,0.0,0.0,1.0,0.5132169723510742,-0.0641711875796318,0.0012657332699745972,1.2184696791468346e-07,0.0,0.0,0.0,1.2184696791468346e-07,0.0,0.0,0.0,1.2184696791468346e-07,0.4903325,0.9120184500000013,10.6500219,8.999999999999999e-08,0.0,0.0,0.0,8.999999999999999e-08,0.0,0.0,0.0,8.999999999999999e-08
1536691719.0839698,1354,1536691719,82990776,base_link,-0.02243201139307006,-0.22109595765265722,-0.9724712233604277,-0.07009352402603813,1.0,0.0,0.0,0.0,1.0,0.0,0.0,0.0,1.0,0.4147990942001343,-0.04613805562257769,-0.18485623598098755,1.2184696791468346e-07,0.0,0.0,0.0,1.2184696791468346e-07,0.0,0.0,0.0,1.2184696791468346e-07,0.5099458,0.7551120500000013,10.48330885,8.999999999999999e-08,0.0,0.0,0.0,8.999999999999999e-08,0.0,0.0,0.0,8.999999999999999e-08
1536691719.5019634,1355,1536691719,500664664,base_link,-0.03695971109289258,-0.2962661174658268,-0.9464126629031289,-0.12313991592600461,1.0,0.0,0.0,0.0,1.0,0.0,0.0,0.0,1.0,0.399470716714859,-0.1517749130725861,-0.2745008170604706,1.2184696791468346e-07,0.0,0.0,0.0,1.2184696791468346e-07,0.0,0.0,0.0,1.2184696791468346e-07,0.6472389000000001,0.7649187000000013,10.179302700000001,8.999999999999999e-08,0.0,0.0,0.0,8.999999999999999e-08,0.0,0.0,0.0,8.999999999999999e-08
1536691719.8914373,1356,1536691719,890813624,base_link,-0.06932368313339125,-0.34572614646867583,-0.9178018104958928,-0.18250341162619882,1.0,0.0,0.0,0.0,1.0,0.0,0.0,0.0,1.0,0.17177627980709076,-0.28634527325630194,-0.2697169482707977,1.2184696791468346e-07,0.0,0.0,0.0,1.2184696791468346e-07,0.0,0.0,0.0,1.2184696791468346e-07,0.97085835,0.8433719000000015,12.05237285,8.999999999999999e-08,0.0,0.0,0.0,8.999999999999999e-08,0.0,0.0,0.0,8.999999999999999e-08
1536691720.211487,1357,1536691720,211192312,base_link,-0.10322976789151395,-0.35545004121964346,-0.8973079264636987,-0.2404940089138093,1.0,0.0,0.0,0.0,1.0,0.0,0.0,0.0,1.0,0.05789417773485184,-0.32471817731857305,-0.30153742432594294,1.2184696791468346e-07,0.0,0.0,0.0,1.2184696791468346e-07,0.0,0.0,0.0,1.2184696791468346e-07,1.3140911,1.0493115500000016,13.64105015,8.999999999999999e-08,0.0,0.0,0.0,8.999999999999999e-08,0.0,0.0,0.0,8.999999999999999e-08
1536691720.4879396,1358,1536691720,487614328,base_link,-0.13010887767368867,-0.3546816327228944,-0.8776829542052735,-0.29486480165835033,1.0,0.0,0.0,0.0,1.0,0.0,0.0,0.0,1.0,0.03965340554714203,-0.3141115605831147,-0.3219040632247924,1.2184696791468346e-07,0.0,0.0,0.0,1.2184696791468346e-07,0.0,0.0,0.0,1.2184696791468346e-07,1.50041745,1.0395049000000016,13.09187775,8.999999999999999e-08,0.0,0.0,0.0,8.999999999999999e-08,0.0,0.0,0.0,8.999999999999999e-08
1536691720.9023316,1359,1536691720,902134296,base_link,-0.17424710361200263,-0.3455513817011158,-0.8408736220186928,-0.3783698472135989,1.0,0.0,0.0,0.0,1.0,0.0,0.0,0.0,1.0,-0.02775466814637184,-0.3666930794715882,-0.29106378555297846,1.2184696791468346e-07,0.0,0.0,0.0,1.2184696791468346e-07,0.0,0.0,0.0,1.2184696791468346e-07,1.53964405,1.1866046500000016,13.856796450000001,8.999999999999999e-08,0.0,0.0,0.0,8.999999999999999e-08,0.0,0.0,0.0,8.999999999999999e-08
1536691721.39065,1360,1536691721,390429976,base_link,-0.22040554976939922,-0.3157902960915837,-0.7928145007738294,-0.47238019633340056,1.0,0.0,0.0,0.0,1.0,0.0,0.0,0.0,1.0,-0.02954266220331192,-0.36546888947486883,-0.3255071341991424,1.2184696791468346e-07,0.0,0.0,0.0,1.2184696791468346e-07,0.0,0.0,0.0,1.2184696791468346e-07,1.6279039,1.068924850000002,14.572681900000001,8.999999999999999e-08,0.0,0.0,0.0,8.999999999999999e-08,0.0,0.0,0.0,8.999999999999999e-08
1536691721.748991,1361,1536691721,748766840,base_link,-0.2598213643790245,-0.29506144563841186,-0.7461994406206894,-0.5372317905032826,1.0,0.0,0.0,0.0,1.0,0.0,0.0,0.0,1.0,-0.010450419038534164,-0.36291357874870306,-0.28302824497222895,1.2184696791468346e-07,0.0,0.0,0.0,1.2184696791468346e-07,0.0,0.0,0.0,1.2184696791468346e-07,1.63771055,1.1866046500000018,14.4550021,8.999999999999999e-08,0.0,0.0,0.0,8.999999999999999e-08,0.0,0.0,0.0,8.999999999999999e-08
1536691722.122541,1362,1536691722,122273048,base_link,-0.291913524667797,-0.27134781373522887,-0.6942160893071413,-0.5993503811997072,1.0,0.0,0.0,0.0,1.0,0.0,0.0,0.0,1.0,-0.03486649692058563,-0.3222209215164185,-0.3254499733448028,1.2184696791468346e-07,0.0,0.0,0.0,1.2184696791468346e-07,0.0,0.0,0.0,1.2184696791468346e-07,1.65732385,1.0296982500000016,13.89602305,8.999999999999999e-08,0.0,0.0,0.0,8.999999999999999e-08,0.0,0.0,0.0,8.999999999999999e-08
1536691722.4778333,1363,1536691722,476403096,base_link,-0.314666769240292,-0.24931133195154406,-0.638017051533407,-0.6570866959915118,1.0,0.0,0.0,0.0,1.0,0.0,0.0,0.0,1.0,-0.016430489718914032,-0.3203191757202149,-0.33970102667808527,1.2184696791468346e-07,0.0,0.0,0.0,1.2184696791468346e-07,0.0,0.0,0.0,1.2184696791468346e-07,1.22583125,1.2258312500000015,13.07226445,8.999999999999999e-08,0.0,0.0,0.0,8.999999999999999e-08,0.0,0.0,0.0,8.999999999999999e-08
1536691722.8453376,1364,1536691722,845036184,base_link,-0.33738320487150164,-0.2261167052259568,-0.576060226282464,-0.7093648034571409,1.0,0.0,0.0,0.0,1.0,0.0,0.0,0.0,1.0,-0.024186018854379654,-0.33281597495079046,-0.3299168646335601,1.2184696791468346e-07,0.0,0.0,0.0,1.2184696791468346e-07,0.0,0.0,0.0,1.2184696791468346e-07,1.10815145,0.9316317500000016,13.1605243,8.999999999999999e-08,0.0,0.0,0.0,8.999999999999999e-08,0.0,0.0,0.0,8.999999999999999e-08
1536691723.2612126,1365,1536691723,260959928,base_link,-0.3603249686078323,-0.1912544146209966,-0.5008094756893697,-0.7633986736597614,1.0,0.0,0.0,0.0,1.0,0.0,0.0,0.0,1.0,-0.052642107009887695,-0.34619817137718206,-0.3166728317737579,1.2184696791468346e-07,0.0,0.0,0.0,1.2184696791468346e-07,0.0,0.0,0.0,1.2184696791468346e-07,0.93163175,1.0689248500000017,13.42530385,8.999999999999999e-08,0.0,0.0,0.0,8.999999999999999e-08,0.0,0.0,0.0,8.999999999999999e-08
1536691723.567916,1366,1536691723,567537080,base_link,-0.3709201225500353,-0.16551369978844457,-0.44415572437612116,-0.7985919924302587,1.0,0.0,0.0,0.0,1.0,0.0,0.0,0.0,1.0,-0.04180461913347244,-0.30368790030479437,-0.33010694384574885,1.2184696791468346e-07,0.0,0.0,0.0,1.2184696791468346e-07,0.0,0.0,0.0,1.2184696791468346e-07,0.8825985000000001,0.9414384000000017,13.2585908,8.999999999999999e-08,0.0,0.0,0.0,8.999999999999999e-08,0.0,0.0,0.0,8.999999999999999e-08
1536691724.0016434,1367,1536691723,999577080,base_link,-0.37953195995562594,-0.13204639948501218,-0.36455752758493704,-0.8400101480556311,1.0,0.0,0.0,0.0,1.0,0.0,0.0,0.0,1.0,-0.06714576482772827,-0.2996382415294648,-0.31844660639762873,1.2184696791468346e-07,0.0,0.0,0.0,1.2184696791468346e-07,0.0,0.0,0.0,1.2184696791468346e-07,0.79433865,0.7551120500000017,13.09187775,8.999999999999999e-08,0.0,0.0,0.0,8.999999999999999e-08,0.0,0.0,0.0,8.999999999999999e-08
1536691724.4531858,1368,1536691724,452936216,base_link,-0.3874800357914025,-0.09530063318846911,-0.26946722371965615,-0.8764498996051007,1.0,0.0,0.0,0.0,1.0,0.0,0.0,0.0,1.0,0.03781992197036743,-0.2989221811294556,-0.32700118422508234,1.2184696791468346e-07,0.0,0.0,0.0,1.2184696791468346e-07,0.0,0.0,0.0,1.2184696791468346e-07,0.4118793,0.8335652500000016,12.5721253,8.999999999999999e-08,0.0,0.0,0.0,8.999999999999999e-08,0.0,0.0,0.0,8.999999999999999e-08
1536691724.7747664,1369,1536691724,773710392,base_link,-0.3951518179133297,-0.07111062060970098,-0.20483637731232912,-0.8926591616993885,1.0,0.0,0.0,0.0,1.0,0.0,0.0,0.0,1.0,-0.07172217965126038,-0.31454297900199896,-0.3117180168628692,1.2184696791468346e-07,0.0,0.0,0.0,1.2184696791468346e-07,0.0,0.0,0.0,1.2184696791468346e-07,0.3530394,0.9022118000000016,12.48386545,8.999999999999999e-08,0.0,0.0,0.0,8.999999999999999e-08,0.0,0.0,0.0,8.999999999999999e-08
1536691725.120259,1370,1536691725,119992056,base_link,-0.3912407269068466,-0.04501365269353371,-0.13424710230133036,-0.9093306220535435,1.0,0.0,0.0,0.0,1.0,0.0,0.0,0.0,1.0,-0.05015590786933899,-0.2973450124263764,-0.3655273020267486,1.2184696791468346e-07,0.0,0.0,0.0,1.2184696791468346e-07,0.0,0.0,0.0,1.2184696791468346e-07,0.38245935,0.9120184500000016,12.4740588,8.999999999999999e-08,0.0,0.0,0.0,8.999999999999999e-08,0.0,0.0,0.0,8.999999999999999e-08
1536691725.643239,1371,1536691725,642917592,base_link,-0.3969742618743259,-0.003007744496078572,-0.024928073725350663,-0.9174862287918679,1.0,0.0,0.0,0.0,1.0,0.0,0.0,0.0,1.0,-0.017619241029024124,-0.31171280145645147,-0.31037873029708857,1.2184696791468346e-07,0.0,0.0,0.0,1.2184696791468346e-07,0.0,0.0,0.0,1.2184696791468346e-07,0.48052585000000003,0.7354987500000016,13.15071765,8.999999999999999e-08,0.0,0.0,0.0,8.999999999999999e-08,0.0,0.0,0.0,8.999999999999999e-08
1536691725.9743972,1372,1536691725,974122904,base_link,-0.397390977325712,0.025167556516519664,0.045142799680455314,-0.9161927378429244,1.0,0.0,0.0,0.0,1.0,0.0,0.0,0.0,1.0,-0.04403206706047058,-0.3077458739280701,-0.31733408570289606,1.2184696791468346e-07,0.0,0.0,0.0,1.2184696791468346e-07,0.0,0.0,0.0,1.2184696791468346e-07,0.4511059,1.0689248500000017,13.32723735,8.999999999999999e-08,0.0,0.0,0.0,8.999999999999999e-08,0.0,0.0,0.0,8.999999999999999e-08
1536691726.4582968,1373,1536691726,458020632,base_link,-0.3909349197915713,0.06196211937354814,0.144617471288721,-0.9068717501655632,1.0,0.0,0.0,0.0,1.0,0.0,0.0,0.0,1.0,-0.028434664011001587,-0.31379872560501104,-0.3223677277565002,1.2184696791468346e-07,0.0,0.0,0.0,1.2184696791468346e-07,0.0,0.0,0.0,1.2184696791468346e-07,0.4511059,0.9316317500000016,13.87640975,8.999999999999999e-08,0.0,0.0,0.0,8.999999999999999e-08,0.0,0.0,0.0,8.999999999999999e-08
1536691726.852631,1374,1536691726,852347928,base_link,-0.38485266134524276,0.09413460194251859,0.2178093217616674,-0.8919563919420779,1.0,0.0,0.0,0.0,1.0,0.0,0.0,0.0,1.0,-0.09200231730937958,-0.3112382590770722,-0.28428864479064936,1.2184696791468346e-07,0.0,0.0,0.0,1.2184696791468346e-07,0.0,0.0,0.0,1.2184696791468346e-07,0.4511059,0.9022118000000017,13.32723735,8.999999999999999e-08,0.0,0.0,0.0,8.999999999999999e-08,0.0,0.0,0.0,8.999999999999999e-08
1536691727.2966735,1375,1536691727,295890776,base_link,-0.3337762409981042,0.12067607795583575,0.3064460964654958,-0.8832448670190122,1.0,0.0,0.0,0.0,1.0,0.0,0.0,0.0,1.0,-0.3288910388946533,-0.2813666462898255,-0.30225071310997004,1.2184696791468346e-07,0.0,0.0,0.0,1.2184696791468346e-07,0.0,0.0,0.0,1.2184696791468346e-07,0.38245935,1.1571847000000017,13.60182355,8.999999999999999e-08,0.0,0.0,0.0,8.999999999999999e-08,0.0,0.0,0.0,8.999999999999999e-08
1536691727.7381856,1376,1536691727,737880152,base_link,-0.28327654672006997,0.13606508326943476,0.38989503981102425,-0.8655764259289839,1.0,0.0,0.0,0.0,1.0,0.0,0.0,0.0,1.0,-0.14448215067386627,-0.24238261580467227,-0.24194481968879697,1.2184696791468346e-07,0.0,0.0,0.0,1.2184696791468346e-07,0.0,0.0,0.0,1.2184696791468346e-07,0.14709975,0.5393657500000016,13.768536600000001,8.999999999999999e-08,0.0,0.0,0.0,8.999999999999999e-08,0.0,0.0,0.0,8.999999999999999e-08
1536691728.1274295,1377,1536691728,127187064,base_link,-0.22905146068357699,0.13956154319642147,0.4329343749792926,-0.8605962066966379,1.0,0.0,0.0,0.0,1.0,0.0,0.0,0.0,1.0,-0.3965796232223511,-0.14387439191341403,-0.14985425770282743,1.2184696791468346e-07,0.0,0.0,0.0,1.2184696791468346e-07,0.0,0.0,0.0,1.2184696791468346e-07,-0.18632635,0.7158854500000016,12.2779258,8.999999999999999e-08,0.0,0.0,0.0,8.999999999999999e-08,0.0,0.0,0.0,8.999999999999999e-08
1536691728.6177788,1378,1536691728,617507672,base_link,-0.16891090731018713,0.11700907992487367,0.49717317803093264,-0.8429690454894572,1.0,0.0,0.0,0.0,1.0,0.0,0.0,0.0,1.0,-0.09710084646940231,-0.079086609184742,-0.24875353276729584,1.2184696791468346e-07,0.0,0.0,0.0,1.2184696791468346e-07,0.0,0.0,0.0,1.2184696791468346e-07,-0.3726527,0.6570455500000014,11.30706745,8.999999999999999e-08,0.0,0.0,0.0,8.999999999999999e-08,0.0,0.0,0.0,8.999999999999999e-08
1536691729.0011902,1379,1536691729,954264,base_link,-0.15247163362604385,0.11244884627979226,0.5343593075804366,-0.8237522614912236,1.0,0.0,0.0,0.0,1.0,0.0,0.0,0.0,1.0,-0.10816197842359543,-0.06217556819319727,-0.18796823918819427,1.2184696791468346e-07,0.0,0.0,0.0,1.2184696791468346e-07,0.0,0.0,0.0,1.2184696791468346e-07,-0.34323275,0.32361945000000125,10.38524235,8.999999999999999e-08,0.0,0.0,0.0,8.999999999999999e-08,0.0,0.0,0.0,8.999999999999999e-08
1536691729.3421724,1380,1536691729,341924632,base_link,-0.14897632398567737,0.11454811351649513,0.5586111206466763,-0.8078603842690835,1.0,0.0,0.0,0.0,1.0,0.0,0.0,0.0,1.0,0.08230987936258316,-0.04660212993621828,-0.16425414383411407,1.2184696791468346e-07,0.0,0.0,0.0,1.2184696791468346e-07,0.0,0.0,0.0,1.2184696791468346e-07,-0.5295591,0.5883990000000012,10.267562550000001,8.999999999999999e-08,0.0,0.0,0.0,8.999999999999999e-08,0.0,0.0,0.0,8.999999999999999e-08
1536691729.7846177,1381,1536691729,784353080,base_link,-0.17703443779510306,0.13313496362312946,0.5901231639471587,-0.7763301750342019,1.0,0.0,0.0,0.0,1.0,0.0,0.0,0.0,1.0,0.19612392783164978,-0.029498111456632645,-0.24481475353240967,1.2184696791468346e-07,0.0,0.0,0.0,1.2184696791468346e-07,0.0,0.0,0.0,1.2184696791468346e-07,-0.5687857000000001,0.6276256000000011,9.03192465,8.999999999999999e-08,0.0,0.0,0.0,8.999999999999999e-08,0.0,0.0,0.0,8.999999999999999e-08
1536691730.1389651,1382,1536691730,138754200,base_link,-0.21235698659576482,0.15631148445903745,0.618102951426452,-0.7405538275561657,1.0,0.0,0.0,0.0,1.0,0.0,0.0,0.0,1.0,0.2888829708099365,-0.04466233029961589,-0.22822192311286926,1.2184696791468346e-07,0.0,0.0,0.0,1.2184696791468346e-07,0.0,0.0,0.0,1.2184696791468346e-07,-0.5099458,0.558979050000001,8.48275225,8.999999999999999e-08,0.0,0.0,0.0,8.999999999999999e-08,0.0,0.0,0.0,8.999999999999999e-08
1536691730.4457517,1383,1536691730,437538008,base_link,-0.23481888849576038,0.1784452745509678,0.6410627639543907,-0.7085590351320085,1.0,0.0,0.0,0.0,1.0,0.0,0.0,0.0,1.0,0.21233253180980682,-0.09186278283596042,-0.22341853380203247,1.2184696791468346e-07,0.0,0.0,0.0,1.2184696791468346e-07,0.0,0.0,0.0,1.2184696791468346e-07,-0.30400615,0.7551120500000013,9.8458766,8.999999999999999e-08,0.0,0.0,0.0,8.999999999999999e-08,0.0,0.0,0.0,8.999999999999999e-08
1536691730.8677964,1384,1536691730,867494616,base_link,-0.253893001146254,0.20891026241825728,0.673967425705504,-0.6615608477783272,1.0,0.0,0.0,0.0,1.0,0.0,0.0,0.0,1.0,0.1515912562608719,-0.1589324921369553,-0.28183457255363464,1.2184696791468346e-07,0.0,0.0,0.0,1.2184696791468346e-07,0.0,0.0,0.0,1.2184696791468346e-07,-0.10787315,0.6766588500000013,10.79712165,8.999999999999999e-08,0.0,0.0,0.0,8.999999999999999e-08,0.0,0.0,0.0,8.999999999999999e-08
1536691731.3926778,1385,1536691731,392326264,base_link,0.2583529585519164,-0.25325264283427745,-0.7277228010648484,0.5826974965754157,1.0,0.0,0.0,0.0,1.0,0.0,0.0,0.0,1.0,0.06725339591503143,-0.27025711536407476,-0.28376159071922297,1.2184696791468346e-07,0.0,0.0,0.0,1.2184696791468346e-07,0.0,0.0,0.0,1.2184696791468346e-07,0.2745862,0.5491724000000014,12.160246,8.999999999999999e-08,0.0,0.0,0.0,8.999999999999999e-08,0.0,0.0,0.0,8.999999999999999e-08
1536691731.6890874,1386,1536691731,688500536,base_link,0.24548068672289758,-0.2778248377897678,-0.757536850522018,0.5372992760597446,1.0,0.0,0.0,0.0,1.0,0.0,0.0,0.0,1.0,0.10312475264072418,-0.3005982637405396,-0.2816490530967712,1.2184696791468346e-07,0.0,0.0,0.0,1.2184696791468346e-07,0.0,0.0,0.0,1.2184696791468346e-07,0.4903325,0.9316317500000015,12.93497135,8.999999999999999e-08,0.0,0.0,0.0,8.999999999999999e-08,0.0,0.0,0.0,8.999999999999999e-08
1536691732.1624143,1387,1536691732,162103672,base_link,0.210913404944512,-0.3126323502526655,-0.8068787031967336,0.4546683489289356,1.0,0.0,0.0,0.0,1.0,0.0,0.0,0.0,1.0,0.010734100826084614,-0.35996264219284063,-0.30281528830528254,1.2184696791468346e-07,0.0,0.0,0.0,1.2184696791468346e-07,0.0,0.0,0.0,1.2184696791468346e-07,0.87279185,0.9512450500000018,14.6315218,8.999999999999999e-08,0.0,0.0,0.0,8.999999999999999e-08,0.0,0.0,0.0,8.999999999999999e-08
1536691732.5061152,1388,1536691732,505827352,base_link,0.18180588197834008,-0.33649193595239907,-0.8369836521244121,0.3913798211374282,1.0,0.0,0.0,0.0,1.0,0.0,0.0,0.0,1.0,-0.003171442076563835,-0.37120515108108526,-0.30556258559226984,1.2184696791468346e-07,0.0,0.0,0.0,1.2184696791468346e-07,0.0,0.0,0.0,1.2184696791468346e-07,0.99047165,1.1081514500000018,14.79823485,8.999999999999999e-08,0.0,0.0,0.0,8.999999999999999e-08,0.0,0.0,0.0,8.999999999999999e-08
1536691732.9102402,1389,1536691732,909662200,base_link,0.1419458959993134,-0.3637196864689868,-0.8666016769812802,0.3107424749484479,1.0,0.0,0.0,0.0,1.0,0.0,0.0,0.0,1.0,-0.03717152029275894,-0.4135889112949372,-0.29630708694458,1.2184696791468346e-07,0.0,0.0,0.0,1.2184696791468346e-07,0.0,0.0,0.0,1.2184696791468346e-07,1.3337044,0.784532000000002,15.4748937,8.999999999999999e-08,0.0,0.0,0.0,8.999999999999999e-08,0.0,0.0,0.0,8.999999999999999e-08
1536691733.154445,1390,1536691733,153980088,base_link,0.11018867155274423,-0.37108401570261357,-0.8834221465799428,0.26404624762255186,1.0,0.0,0.0,0.0,1.0,0.0,0.0,0.0,1.0,-0.02965449169278145,-0.417875349521637,-0.27521744370460505,1.2184696791468346e-07,0.0,0.0,0.0,1.2184696791468346e-07,0.0,0.0,0.0,1.2184696791468346e-07,1.4121576,1.147378050000002,16.44575205,8.999999999999999e-08,0.0,0.0,0.0,8.999999999999999e-08,0.0,0.0,0.0,8.999999999999999e-08
1536691733.5622141,1391,1536691733,561901400,base_link,0.04931231422721679,-0.368890088389784,-0.9099259184330273,0.18309347699234246,1.0,0.0,0.0,0.0,1.0,0.0,0.0,0.0,1.0,-0.15874642133712769,-0.401973843574524,-0.27756485342979426,1.2184696791468346e-07,0.0,0.0,0.0,1.2184696791468346e-07,0.0,0.0,0.0,1.2184696791468346e-07,1.34351105,1.2062179500000023,18.240369,8.999999999999999e-08,0.0,0.0,0.0,8.999999999999999e-08,0.0,0.0,0.0,8.999999999999999e-08
1536691733.8448477,1392,1536691733,844483288,base_link,0.018012490808887196,-0.3706785876206226,-0.9201297864877331,0.1250364381789511,1.0,0.0,0.0,0.0,1.0,0.0,0.0,0.0,1.0,0.06779815256595612,-0.3498274981975556,-0.3444031178951263,1.2184696791468346e-07,0.0,0.0,0.0,1.2184696791468346e-07,0.0,0.0,0.0,1.2184696791468346e-07,0.89240515,1.0100849500000015,13.07226445,8.999999999999999e-08,0.0,0.0,0.0,8.999999999999999e-08,0.0,0.0,0.0,8.999999999999999e-08
1536691734.115397,1393,1536691734,114903096,base_link,-0.013090354097926834,-0.36324035150163875,-0.9295449347766063,0.06189752742809311,1.0,0.0,0.0,0.0,1.0,0.0,0.0,0.0,1.0,-0.15247009694576263,-0.34176132082939154,-0.32738435268402094,1.2184696791468346e-07,0.0,0.0,0.0,1.2184696791468346e-07,0.0,0.0,0.0,1.2184696791468346e-07,0.784532,1.0983448000000022,18.19133575,8.999999999999999e-08,0.0,0.0,0.0,8.999999999999999e-08,0.0,0.0,0.0,8.999999999999999e-08
1536691734.5506096,1394,1536691734,550332344,base_link,-0.04763876394845956,-0.38326032701787555,-0.9221935752151691,-0.020026975195421196,1.0,0.0,0.0,0.0,1.0,0.0,0.0,0.0,1.0,0.11819063872098923,-0.26692736148834234,-0.2768720984458923,1.2184696791468346e-07,0.0,0.0,0.0,1.2184696791468346e-07,0.0,0.0,0.0,1.2184696791468346e-07,0.0980665,0.8433719000000014,11.2972608,8.999999999999999e-08,0.0,0.0,0.0,8.999999999999999e-08,0.0,0.0,0.0,8.999999999999999e-08
1536691734.8659215,1395,1536691734,859627224,base_link,-0.06951214511411641,-0.3625685335061983,-0.9259651433659452,-0.07937678164352276,1.0,0.0,0.0,0.0,1.0,0.0,0.0,0.0,1.0,-0.17893818020820618,-0.2712466716766358,-0.2492362409830093,1.2184696791468346e-07,0.0,0.0,0.0,1.2184696791468346e-07,0.0,0.0,0.0,1.2184696791468346e-07,-0.0392266,0.6178189500000016,13.03303785,8.999999999999999e-08,0.0,0.0,0.0,8.999999999999999e-08,0.0,0.0,0.0,8.999999999999999e-08
1536691735.3440142,1396,1536691735,343882456,base_link,-0.08661850313579698,-0.34573542783245087,-0.9222867555237412,-0.14950381079262437,1.0,0.0,0.0,0.0,1.0,0.0,0.0,0.0,1.0,-0.03661952540278435,-0.11990993469953541,-0.34446799755096436,1.2184696791468346e-07,0.0,0.0,0.0,1.2184696791468346e-07,0.0,0.0,0.0,1.2184696791468346e-07,-0.5099458,0.8629852000000009,7.14904785,8.999999999999999e-08,0.0,0.0,0.0,8.999999999999999e-08,0.0,0.0,0.0,8.999999999999999e-08
1536691735.7439737,1397,1536691735,742282232,base_link,-0.08966135789757555,-0.3505148621926147,-0.906095634535989,-0.21929631405219463,1.0,0.0,0.0,0.0,1.0,0.0,0.0,0.0,1.0,0.1024291142821312,-0.16022793948650363,-0.2717142701148987,1.2184696791468346e-07,0.0,0.0,0.0,1.2184696791468346e-07,0.0,0.0,0.0,1.2184696791468346e-07,-0.588399,0.15690640000000125,10.14988275,8.999999999999999e-08,0.0,0.0,0.0,8.999999999999999e-08,0.0,0.0,0.0,8.999999999999999e-08
1536691736.0743604,1398,1536691736,73973240,base_link,-0.10346035631831865,-0.3567110615008186,-0.8913908309359351,-0.2597605816839595,1.0,0.0,0.0,0.0,1.0,0.0,0.0,0.0,1.0,-0.05771750956773758,-0.19251358509063723,-0.2053491026163101,1.2184696791468346e-07,0.0,0.0,0.0,1.2184696791468346e-07,0.0,0.0,0.0,1.2184696791468346e-07,-0.57859235,0.7354987500000013,9.80665,8.999999999999999e-08,0.0,0.0,0.0,8.999999999999999e-08,0.0,0.0,0.0,8.999999999999999e-08
1536691736.5358882,1399,1536691736,534785144,base_link,-0.10661836472942507,-0.32614351105004397,-0.8786150134762796,-0.3321123192482481,1.0,0.0,0.0,0.0,1.0,0.0,0.0,0.0,1.0,-0.06768849492073059,-0.13194434344768527,-0.32323408126831055,1.2184696791468346e-07,0.0,0.0,0.0,1.2184696791468346e-07,0.0,0.0,0.0,1.2184696791468346e-07,-0.51975245,0.7453054000000012,10.5323421,8.999999999999999e-08,0.0,0.0,0.0,8.999999999999999e-08,0.0,0.0,0.0,8.999999999999999e-08
1536691736.778627,1400,1536691736,778357016,base_link,-0.10751431115284406,-0.31956800641119226,-0.8627991056643874,-0.37668908325094685,1.0,0.0,0.0,0.0,1.0,0.0,0.0,0.0,1.0,-0.05268976092338562,-0.15207949280738833,-0.3238244652748108,1.2184696791468346e-07,0.0,0.0,0.0,1.2184696791468346e-07,0.0,0.0,0.0,1.2184696791468346e-07,-0.55897905,0.5982056500000013,10.42446895,8.999999999999999e-08,0.0,0.0,0.0,8.999999999999999e-08,0.0,0.0,0.0,8.999999999999999e-08
1536691737.137473,1401,1536691737,135916856,base_link,-0.11679362307283485,-0.31546733662419013,-0.836882846149403,-0.4318179141184802,1.0,0.0,0.0,0.0,1.0,0.0,0.0,0.0,1.0,0.03427034988999367,-0.18892523646354678,-0.2883707582950592,1.2184696791468346e-07,0.0,0.0,0.0,1.2184696791468346e-07,0.0,0.0,0.0,1.2184696791468346e-07,-0.67665885,0.5295591000000013,10.65982855,8.999999999999999e-08,0.0,0.0,0.0,8.999999999999999e-08,0.0,0.0,0.0,8.999999999999999e-08
1536691737.4521909,1402,1536691737,451918648,base_link,-0.12982473592487925,-0.3089894456021016,-0.8147183274730909,-0.4731861233468183,1.0,0.0,0.0,0.0,1.0,0.0,0.0,0.0,1.0,0.0292340274900198,-0.19393052160739901,-0.2749711871147156,1.2184696791468346e-07,0.0,0.0,0.0,1.2184696791468346e-07,0.0,0.0,0.0,1.2184696791468346e-07,-0.36284605000000003,0.6668522000000014,11.44436055,8.999999999999999e-08,0.0,0.0,0.0,8.999999999999999e-08,0.0,0.0,0.0,8.999999999999999e-08
1536691737.8858333,1403,1536691737,881997784,base_link,-0.1551487778503214,-0.3019355129613403,-0.7741090262590554,-0.5343397965794621,1.0,0.0,0.0,0.0,1.0,0.0,0.0,0.0,1.0,0.05345204472541809,-0.25665313005447393,-0.2803444564342498,1.2184696791468346e-07,0.0,0.0,0.0,1.2184696791468346e-07,0.0,0.0,0.0,1.2184696791468346e-07,-0.2353596,0.5295591000000015,12.3367657,8.999999999999999e-08,0.0,0.0,0.0,8.999999999999999e-08,0.0,0.0,0.0,8.999999999999999e-08
1536691738.209429,1404,1536691738,209159992,base_link,-0.18068497361861122,-0.29441675383706467,-0.7397804263362283,-0.577405088458939,1.0,0.0,0.0,0.0,1.0,0.0,0.0,0.0,1.0,0.04519825428724289,-0.2731477022171021,-0.2648323774337768,1.2184696791468346e-07,0.0,0.0,0.0,1.2184696791468346e-07,0.0,0.0,0.0,1.2184696791468346e-07,-0.10787315,0.7747253500000015,12.83690485,8.999999999999999e-08,0.0,0.0,0.0,8.999999999999999e-08,0.0,0.0,0.0,8.999999999999999e-08
1536691738.6978161,1405,1536691738,697427736,base_link,-0.21382278645427855,-0.2682736606345193,-0.6845158413868602,-0.6432317792935309,1.0,0.0,0.0,0.0,1.0,0.0,0.0,0.0,1.0,-0.03381235897541046,-0.2833115756511689,-0.282505452632904,1.2184696791468346e-07,0.0,0.0,0.0,1.2184696791468346e-07,0.0,0.0,0.0,1.2184696791468346e-07,0.06864655,0.8629852000000017,13.91563635,8.999999999999999e-08,0.0,0.0,0.0,8.999999999999999e-08,0.0,0.0,0.0,8.999999999999999e-08
1536691739.1065767,1406,1536691739,106279064,base_link,-0.23607239896277918,-0.2438651190623254,-0.6324482233848917,-0.6962821776334434,1.0,0.0,0.0,0.0,1.0,0.0,0.0,0.0,1.0,0.025550276041030884,-0.2881079018115998,-0.3064835965633392,1.2184696791468346e-07,0.0,0.0,0.0,1.2184696791468346e-07,0.0,0.0,0.0,1.2184696791468346e-07,0.1372931,0.7354987500000016,13.2978174,8.999999999999999e-08,0.0,0.0,0.0,8.999999999999999e-08,0.0,0.0,0.0,8.999999999999999e-08
1536691739.4472523,1407,1536691739,447019256,base_link,-0.2607512069078603,-0.22581250705244668,-0.5836828821338322,-0.7350726582173533,1.0,0.0,0.0,0.0,1.0,0.0,0.0,0.0,1.0,0.0455438494682312,-0.2954244017601014,-0.26816201210021967,1.2184696791468346e-07,0.0,0.0,0.0,1.2184696791468346e-07,0.0,0.0,0.0,1.2184696791468346e-07,0.08825985,0.7060788000000017,13.46453045,8.999999999999999e-08,0.0,0.0,0.0,8.999999999999999e-08,0.0,0.0,0.0,8.999999999999999e-08
1536691739.9055703,1408,1536691739,899669432,base_link,-0.29273412978775726,-0.19464386655240762,-0.5183723365090586,-0.77955796141985,1.0,0.0,0.0,0.0,1.0,0.0,0.0,0.0,1.0,0.0025444207713007927,-0.30227518081665045,-0.27165588736534113,1.2184696791468346e-07,0.0,0.0,0.0,1.2184696791468346e-07,0.0,0.0,0.0,1.2184696791468346e-07,0.2941995,0.7943386500000017,13.6508568,8.999999999999999e-08,0.0,0.0,0.0,8.999999999999999e-08,0.0,0.0,0.0,8.999999999999999e-08
1536691740.2748914,1409,1536691740,271694008,base_link,-0.30976012737247627,-0.1698081023076165,-0.46173897973205213,-0.8136405757316169,1.0,0.0,0.0,0.0,1.0,0.0,0.0,0.0,1.0,0.04905266314744949,-0.2777929902076722,-0.3032925724983215,1.2184696791468346e-07,0.0,0.0,0.0,1.2184696791468346e-07,0.0,0.0,0.0,1.2184696791468346e-07,0.32361945000000003,0.6668522000000017,13.1016844,8.999999999999999e-08,0.0,0.0,0.0,8.999999999999999e-08,0.0,0.0,0.0,8.999999999999999e-08
1536691740.680715,1410,1536691740,680182584,base_link,-0.3333661905008552,-0.14479455748380549,-0.39194860744222504,-0.8451495774584028,1.0,0.0,0.0,0.0,1.0,0.0,0.0,0.0,1.0,-0.008626182563602924,-0.27726241946220404,-0.28731331229209894,1.2184696791468346e-07,0.0,0.0,0.0,1.2184696791468346e-07,0.0,0.0,0.0,1.2184696791468346e-07,0.32361945000000003,0.7649187000000015,13.03303785,8.999999999999999e-08,0.0,0.0,0.0,8.999999999999999e-08,0.0,0.0,0.0,8.999999999999999e-08
1536691740.973066,1411,1536691740,972507480,base_link,-0.3430732295906479,-0.12573164345570545,-0.3436965254552381,-0.8650809276375053,1.0,0.0,0.0,0.0,1.0,0.0,0.0,0.0,1.0,-0.0053879693150520325,-0.27650812268257147,-0.2954538762569427,1.2184696791468346e-07,0.0,0.0,0.0,1.2184696791468346e-07,0.0,0.0,0.0,1.2184696791468346e-07,0.4118793,0.6080123000000016,12.93497135,8.999999999999999e-08,0.0,0.0,0.0,8.999999999999999e-08,0.0,0.0,0.0,8.999999999999999e-08
1536691741.2770076,1412,1536691741,276253048,base_link,-0.35234888293764727,-0.10233114973932712,-0.28907257133968817,-0.8842033979716887,1.0,0.0,0.0,0.0,1.0,0.0,0.0,0.0,1.0,-0.00477901566773653,-0.27757558226585394,-0.2717123329639434,1.2184696791468346e-07,0.0,0.0,0.0,1.2184696791468346e-07,0.0,0.0,0.0,1.2184696791468346e-07,0.38245935,0.9022118000000016,13.0232312,8.999999999999999e-08,0.0,0.0,0.0,8.999999999999999e-08,0.0,0.0,0.0,8.999999999999999e-08
1536691741.7362542,1413,1536691741,735795320,base_link,-0.3589788139701019,-0.06666917419163292,-0.21390003329994622,-0.906055300788813,1.0,0.0,0.0,0.0,1.0,0.0,0.0,0.0,1.0,-0.059650734066963196,-0.27485316991806036,-0.2728544473648071,1.2184696791468346e-07,0.0,0.0,0.0,1.2184696791468346e-07,0.0,0.0,0.0,1.2184696791468346e-07,0.4707192,1.0100849500000018,13.337044,8.999999999999999e-08,0.0,0.0,0.0,8.999999999999999e-08,0.0,0.0,0.0,8.999999999999999e-08
1536691742.1008449,1414,1536691742,100600280,base_link,-0.3647145144511011,-0.04110238702708579,-0.1443334888028303,-0.9189460053449148,1.0,0.0,0.0,0.0,1.0,0.0,0.0,0.0,1.0,0.018368050456047058,-0.24029557406902316,-0.3355694711208343,1.2184696791468346e-07,0.0,0.0,0.0,1.2184696791468346e-07,0.0,0.0,0.0,1.2184696791468346e-07,0.2745862,1.0002783000000015,12.3759923,8.999999999999999e-08,0.0,0.0,0.0,8.999999999999999e-08,0.0,0.0,0.0,8.999999999999999e-08
1536691742.5335348,1415,1536691742,533055800,base_link,-0.3589696578248161,-0.012873609365593643,-0.0597300608455788,-0.9313470753561316,1.0,0.0,0.0,0.0,1.0,0.0,0.0,0.0,1.0,0.024518080055713654,-0.2904647886753083,-0.28421646356582636,1.2184696791468346e-07,0.0,0.0,0.0,1.2184696791468346e-07,0.0,0.0,0.0,1.2184696791468346e-07,0.32361945000000003,0.45110590000000156,12.4152189,8.999999999999999e-08,0.0,0.0,0.0,8.999999999999999e-08,0.0,0.0,0.0,8.999999999999999e-08
1536691742.833419,1416,1536691742,833162264,base_link,-0.36426281263574994,0.01412498656320793,-0.009024752957325632,-0.9311453387733524,1.0,0.0,0.0,0.0,1.0,0.0,0.0,0.0,1.0,-0.021133387461304665,-0.2942911088466645,-0.24413758516311643,1.2184696791468346e-07,0.0,0.0,0.0,1.2184696791468346e-07,0.0,0.0,0.0,1.2184696791468346e-07,0.3138128,0.5393657500000015,12.73883835,8.999999999999999e-08,0.0,0.0,0.0,8.999999999999999e-08,0.0,0.0,0.0,8.999999999999999e-08
1536691743.3327837,1417,1536691743,332332920,base_link,-0.3648965972420526,0.05019624351638457,0.07796096789000412,-0.9264193963554892,1.0,0.0,0.0,0.0,1.0,0.0,0.0,0.0,1.0,-0.0022972188889980316,-0.22458946704864505,-0.3182361423969269,1.2184696791468346e-07,0.0,0.0,0.0,1.2184696791468346e-07,0.0,0.0,0.0,1.2184696791468346e-07,0.196133,0.9806650000000016,12.69961175,8.999999999999999e-08,0.0,0.0,0.0,8.999999999999999e-08,0.0,0.0,0.0,8.999999999999999e-08
1536691743.7091613,1418,1536691743,708926392,base_link,-0.37030331404617556,0.07007924703375416,0.14830550379534857,-0.9143138587408643,1.0,0.0,0.0,0.0,1.0,0.0,0.0,0.0,1.0,0.06891658902168274,-0.2337615638971329,-0.2909632325172424,1.2184696791468346e-07,0.0,0.0,0.0,1.2184696791468346e-07,0.0,0.0,0.0,1.2184696791468346e-07,0.34323275,0.5295591000000015,12.1798593,8.999999999999999e-08,0.0,0.0,0.0,8.999999999999999e-08,0.0,0.0,0.0,8.999999999999999e-08
1536691744.100625,1419,1536691744,99794776,base_link,-0.37187176385792753,0.09433781295072706,0.21551987656341243,-0.8979771439735862,1.0,0.0,0.0,0.0,1.0,0.0,0.0,0.0,1.0,0.05987635627388954,-0.2610591351985932,-0.2831877768039703,1.2184696791468346e-07,0.0,0.0,0.0,1.2184696791468346e-07,0.0,0.0,0.0,1.2184696791468346e-07,0.4118793,0.7354987500000015,12.5328987,8.999999999999999e-08,0.0,0.0,0.0,8.999999999999999e-08,0.0,0.0,0.0,8.999999999999999e-08
1536691744.4906886,1420,1536691744,490246712,base_link,-0.37328053045271004,0.11960901314982304,0.28629497251454716,-0.8742942972884837,1.0,0.0,0.0,0.0,1.0,0.0,0.0,0.0,1.0,0.07727574557065964,-0.2588126957416535,-0.31189233064651484,1.2184696791468346e-07,0.0,0.0,0.0,1.2184696791468346e-07,0.0,0.0,0.0,1.2184696791468346e-07,0.3530394,0.9120184500000014,11.571847,8.999999999999999e-08,0.0,0.0,0.0,8.999999999999999e-08,0.0,0.0,0.0,8.999999999999999e-08
1536691744.8882835,1421,1536691744,888008376,base_link,-0.3692129388379563,0.1510477211242454,0.3590190139207623,-0.8437841782003116,1.0,0.0,0.0,0.0,1.0,0.0,0.0,0.0,1.0,0.05833960697054863,-0.304848998785019,-0.28231006860733027,1.2184696791468346e-07,0.0,0.0,0.0,1.2184696791468346e-07,0.0,0.0,0.0,1.2184696791468346e-07,0.6864655,0.9806650000000017,13.5724036,8.999999999999999e-08,0.0,0.0,0.0,8.999999999999999e-08,0.0,0.0,0.0,8.999999999999999e-08
1536691745.3078077,1422,1536691745,307459992,base_link,-0.35072453117389835,0.17798120170753293,0.4346977857787474,-0.8101560529371153,1.0,0.0,0.0,0.0,1.0,0.0,0.0,0.0,1.0,-0.03583337366580963,-0.29733225703239446,-0.3422775566577911,1.2184696791468346e-07,0.0,0.0,0.0,1.2184696791468346e-07,0.0,0.0,0.0,1.2184696791468346e-07,0.79433865,0.9904716500000017,13.11149105,8.999999999999999e-08,0.0,0.0,0.0,8.999999999999999e-08,0.0,0.0,0.0,8.999999999999999e-08
1536691745.7200687,1423,1536691745,719791128,base_link,-0.3279836959037455,0.2070453555335897,0.512241729927899,-0.7662684425798585,1.0,0.0,0.0,0.0,1.0,0.0,0.0,0.0,1.0,-0.03252244368195534,-0.34159684181213384,-0.2997018992900848,1.2184696791468346e-07,0.0,0.0,0.0,1.2184696791468346e-07,0.0,0.0,0.0,1.2184696791468346e-07,0.9022118,0.8629852000000017,14.20983585,8.999999999999999e-08,0.0,0.0,0.0,8.999999999999999e-08,0.0,0.0,0.0,8.999999999999999e-08
1536691746.125148,1424,1536691746,124730808,base_link,-0.29001286966207684,0.23194803127324565,0.5797880146215728,-0.7252161776463674,1.0,0.0,0.0,0.0,1.0,0.0,0.0,0.0,1.0,-0.11346865445375443,-0.33416533470153814,-0.2996745109558105,1.2184696791468346e-07,0.0,0.0,0.0,1.2184696791468346e-07,0.0,0.0,0.0,1.2184696791468346e-07,0.8237586,1.1964113000000018,15.023787800000001,8.999999999999999e-08,0.0,0.0,0.0,8.999999999999999e-08,0.0,0.0,0.0,8.999999999999999e-08
1536691746.494058,1425,1536691746,489966648,base_link,-0.26870938793742055,0.2544974107204499,0.6411332594046345,-0.6722904702999091,1.0,0.0,0.0,0.0,1.0,0.0,0.0,0.0,1.0,0.03448939323425293,-0.339986264705658,-0.36405605077743525,1.2184696791468346e-07,0.0,0.0,0.0,1.2184696791468346e-07,0.0,0.0,0.0,1.2184696791468346e-07,0.588399,0.7845320000000017,13.405690550000001,8.999999999999999e-08,0.0,0.0,0.0,8.999999999999999e-08,0.0,0.0,0.0,8.999999999999999e-08
1536691746.9381893,1426,1536691746,932526392,base_link,0.23409974466041758,-0.2949834204658364,-0.7030358350069029,0.6032600648943618,1.0,0.0,0.0,0.0,1.0,0.0,0.0,0.0,1.0,0.015327433124184608,-0.3704655468463898,-0.23669484257698054,1.2184696791468346e-07,0.0,0.0,0.0,1.2184696791468346e-07,0.0,0.0,0.0,1.2184696791468346e-07,0.5295591,0.6962721500000019,15.21011415,8.999999999999999e-08,0.0,0.0,0.0,8.999999999999999e-08,0.0,0.0,0.0,8.999999999999999e-08
1536691747.2810483,1427,1536691747,280331224,base_link,0.20573828306240935,-0.32652164664516864,-0.7386454271329157,0.5526828259773339,1.0,0.0,0.0,0.0,1.0,0.0,0.0,0.0,1.0,0.026242081075906754,-0.348218321800232,-0.262502372264862,1.2184696791468346e-07,0.0,0.0,0.0,1.2184696791468346e-07,0.0,0.0,0.0,1.2184696791468346e-07,0.8041453000000001,0.8531785500000019,15.3572139,8.999999999999999e-08,0.0,0.0,0.0,8.999999999999999e-08,0.0,0.0,0.0,8.999999999999999e-08
1536691747.6850533,1428,1536691747,684802680,base_link,0.1748151277992292,-0.35181808556319283,-0.7793047192649833,0.48820882857084263,1.0,0.0,0.0,0.0,1.0,0.0,0.0,0.0,1.0,-0.027588821947574615,-0.3002802431583405,-0.2921472787857055,1.2184696791468346e-07,0.0,0.0,0.0,1.2184696791468346e-07,0.0,0.0,0.0,1.2184696791468346e-07,0.63743225,0.8531785500000019,14.396162200000001,8.999999999999999e-08,0.0,0.0,0.0,8.999999999999999e-08,0.0,0.0,0.0,8.999999999999999e-08
1536691748.0553832,1429,1536691748,54951960,base_link,0.14916680624254183,-0.3702271137876721,-0.8139626694597005,0.4220733595690307,1.0,0.0,0.0,0.0,1.0,0.0,0.0,0.0,1.0,-0.024671848863363266,-0.31025263667106634,-0.295499175786972,1.2184696791468346e-07,0.0,0.0,0.0,1.2184696791468346e-07,0.0,0.0,0.0,1.2184696791468346e-07,0.4511059,0.9610517000000017,13.1801376,8.999999999999999e-08,0.0,0.0,0.0,8.999999999999999e-08,0.0,0.0,0.0,8.999999999999999e-08
1536691748.3916223,1430,1536691748,391377272,base_link,0.12586887743702405,-0.3821440477930034,-0.839634122494855,0.3648801073933966,1.0,0.0,0.0,0.0,1.0,0.0,0.0,0.0,1.0,-0.01529445219784975,-0.31700471043586737,-0.2983871698379516,1.2184696791468346e-07,0.0,0.0,0.0,1.2184696791468346e-07,0.0,0.0,0.0,1.2184696791468346e-07,0.392266,0.8629852000000017,13.6704701,8.999999999999999e-08,0.0,0.0,0.0,8.999999999999999e-08,0.0,0.0,0.0,8.999999999999999e-08
1536691748.7939172,1431,1536691748,793678552,base_link,0.09235437763909549,-0.39056678792006455,-0.86957835258417,0.28768340553757965,1.0,0.0,0.0,0.0,1.0,0.0,0.0,0.0,1.0,-0.0407850407063961,-0.301664024591446,-0.3220273554325103,1.2184696791468346e-07,0.0,0.0,0.0,1.2184696791468346e-07,0.0,0.0,0.0,1.2184696791468346e-07,0.34323275,0.8531785500000016,13.5920169,8.999999999999999e-08,0.0,0.0,0.0,8.999999999999999e-08,0.0,0.0,0.0,8.999999999999999e-08
1536691749.1264613,1432,1536691749,125958136,base_link,0.07378713695760296,-0.39384244263022294,-0.8875601605456749,0.22733356596595108,1.0,0.0,0.0,0.0,1.0,0.0,0.0,0.0,1.0,-0.04586608707904816,-0.24974980950355533,-0.3116320669651031,1.2184696791468346e-07,0.0,0.0,0.0,1.2184696791468346e-07,0.0,0.0,0.0,1.2184696791468346e-07,0.1176798,0.8727918500000017,13.09187775,8.999999999999999e-08,0.0,0.0,0.0,8.999999999999999e-08,0.0,0.0,0.0,8.999999999999999e-08
1536691749.557723,1433,1536691749,557403576,base_link,0.05513942242558062,-0.41049197874054977,-0.8986618453915762,0.14443983910835675,1.0,0.0,0.0,0.0,1.0,0.0,0.0,0.0,1.0,0.10797134041786194,-0.25864738225936895,-0.2990325987339019,1.2184696791468346e-07,0.0,0.0,0.0,1.2184696791468346e-07,0.0,0.0,0.0,1.2184696791468346e-07,0.2745862,0.9610517000000015,12.3759923,8.999999999999999e-08,0.0,0.0,0.0,8.999999999999999e-08,0.0,0.0,0.0,8.999999999999999e-08
1536691749.8111598,1434,1536691749,810908792,base_link,0.04479380307225272,-0.4101985405268937,-0.9062529121147129,0.09184950647408423,1.0,0.0,0.0,0.0,1.0,0.0,0.0,0.0,1.0,-0.17799855768680573,-0.20942585170269018,-0.36812788248062134,1.2184696791468346e-07,0.0,0.0,0.0,1.2184696791468346e-07,0.0,0.0,0.0,1.2184696791468346e-07,0.1569064,1.4121576000000011,9.1594111,8.999999999999999e-08,0.0,0.0,0.0,8.999999999999999e-08,0.0,0.0,0.0,8.999999999999999e-08
1536691750.1709843,1435,1536691750,170596376,base_link,0.027197436107330886,-0.40406012322945845,-0.9141971973677177,0.015466111663662673,1.0,0.0,0.0,0.0,1.0,0.0,0.0,0.0,1.0,-0.03724998980760574,-0.3280686736106873,-0.33666121959686274,1.2184696791468346e-07,0.0,0.0,0.0,1.2184696791468346e-07,0.0,0.0,0.0,1.2184696791468346e-07,-0.30400615,0.7453054000000017,14.17060925,8.999999999999999e-08,0.0,0.0,0.0,8.999999999999999e-08,0.0,0.0,0.0,8.999999999999999e-08
1536691750.5186567,1436,1536691750,518193176,base_link,-0.008746410840010708,-0.41064971295568653,-0.9099902807790023,-0.056639230526043985,1.0,0.0,0.0,0.0,1.0,0.0,0.0,0.0,1.0,-0.09065727889537811,-0.3515512645244599,-0.25119984149932856,1.2184696791468346e-07,0.0,0.0,0.0,1.2184696791468346e-07,0.0,0.0,0.0,1.2184696791468346e-07,-0.2353596,0.8237586000000017,14.2000292,8.999999999999999e-08,0.0,0.0,0.0,8.999999999999999e-08,0.0,0.0,0.0,8.999999999999999e-08
1536691750.964491,1437,1536691750,964083128,base_link,-0.04904243959757007,-0.38702914868295707,-0.9099938858670062,-0.14040799433340773,1.0,0.0,0.0,0.0,1.0,0.0,0.0,0.0,1.0,-0.0028793159872293472,-0.3101064264774323,-0.3037751913070678,1.2184696791468346e-07,0.0,0.0,0.0,1.2184696791468346e-07,0.0,0.0,0.0,1.2184696791468346e-07,-0.16671305,0.7943386500000017,13.4547238,8.999999999999999e-08,0.0,0.0,0.0,8.999999999999999e-08,0.0,0.0,0.0,8.999999999999999e-08
1536691751.343288,1438,1536691751,342904664,base_link,-0.07151405362975942,-0.35988504000421667,-0.9052196877924179,-0.21434974911951865,1.0,0.0,0.0,0.0,1.0,0.0,0.0,0.0,1.0,-0.10591689497232437,-0.28976392745971685,-0.32129773497581476,1.2184696791468346e-07,0.0,0.0,0.0,1.2184696791468346e-07,0.0,0.0,0.0,1.2184696791468346e-07,-0.22555295,0.8825985000000015,12.9840046,8.999999999999999e-08,0.0,0.0,0.0,8.999999999999999e-08,0.0,0.0,0.0,8.999999999999999e-08
1536691751.7120874,1439,1536691751,710464568,base_link,-0.09608239190014613,-0.3352617777292415,-0.8928317505283923,-0.2849897886047538,1.0,0.0,0.0,0.0,1.0,0.0,0.0,0.0,1.0,-0.1199403703212738,-0.24657477438449862,-0.24915714561939237,1.2184696791468346e-07,0.0,0.0,0.0,1.2184696791468346e-07,0.0,0.0,0.0,1.2184696791468346e-07,-0.36284605000000003,0.7256921000000015,12.85651815,8.999999999999999e-08,0.0,0.0,0.0,8.999999999999999e-08,0.0,0.0,0.0,8.999999999999999e-08
1536691752.0674953,1440,1536691752,67252856,base_link,-0.10917523043757044,-0.30526230397249215,-0.8835959959385811,-0.33786655767272383,1.0,0.0,0.0,0.0,1.0,0.0,0.0,0.0,1.0,-0.15736837685108185,-0.20830269157886508,-0.26019373536109924,1.2184696791468346e-07,0.0,0.0,0.0,1.2184696791468346e-07,0.0,0.0,0.0,1.2184696791468346e-07,-0.38245935,0.6472389000000015,12.32695905,8.999999999999999e-08,0.0,0.0,0.0,8.999999999999999e-08,0.0,0.0,0.0,8.999999999999999e-08
1536691752.5231092,1441,1536691752,522855160,base_link,-0.11520478527305326,-0.27116404136325645,-0.8654980089677813,-0.4051063028324076,1.0,0.0,0.0,0.0,1.0,0.0,0.0,0.0,1.0,-0.09066846966743469,-0.14076149463653567,-0.2663716971874237,1.2184696791468346e-07,0.0,0.0,0.0,1.2184696791468346e-07,0.0,0.0,0.0,1.2184696791468346e-07,-0.5295591,0.8041453000000014,11.44436055,8.999999999999999e-08,0.0,0.0,0.0,8.999999999999999e-08,0.0,0.0,0.0,8.999999999999999e-08
1536691752.960568,1442,1536691752,960345624,base_link,-0.12233378294077978,-0.2542932943129532,-0.8418072795016426,-0.46014114160429864,1.0,0.0,0.0,0.0,1.0,0.0,0.0,0.0,1.0,-0.024401182308793068,-0.13822062313556674,-0.23776760697364804,1.2184696791468346e-07,0.0,0.0,0.0,1.2184696791468346e-07,0.0,0.0,0.0,1.2184696791468346e-07,-0.6864655,0.5982056500000014,10.87557485,8.999999999999999e-08,0.0,0.0,0.0,8.999999999999999e-08,0.0,0.0,0.0,8.999999999999999e-08
1536691753.3241835,1443,1536691753,323918072,base_link,-0.13253239146815313,-0.24702813775465182,-0.8191207213702075,-0.5004533027078069,1.0,0.0,0.0,0.0,1.0,0.0,0.0,0.0,1.0,0.00911314319819212,-0.13440784811973575,-0.2231306433677673,1.2184696791468346e-07,0.0,0.0,0.0,1.2184696791468346e-07,0.0,0.0,0.0,1.2184696791468346e-07,-0.65704555,0.5393657500000014,11.1011278,8.999999999999999e-08,0.0,0.0,0.0,8.999999999999999e-08,0.0,0.0,0.0,8.999999999999999e-08
1536691753.746001,1444,1536691753,745722648,base_link,-0.14430700737445773,-0.2387059919746094,-0.7912589583273834,-0.5441545716841034,1.0,0.0,0.0,0.0,1.0,0.0,0.0,0.0,1.0,-0.0008379509672522545,-0.12381397187709811,-0.2358385473489761,1.2184696791468346e-07,0.0,0.0,0.0,1.2184696791468346e-07,0.0,0.0,0.0,1.2184696791468346e-07,-0.5295591,0.5883990000000013,11.0030613,8.999999999999999e-08,0.0,0.0,0.0,8.999999999999999e-08,0.0,0.0,0.0,8.999999999999999e-08
1536691754.1292784,1445,1536691754,128911032,base_link,-0.15659286126541236,-0.24052576784087418,-0.7587673110603641,-0.5847206157401106,1.0,0.0,0.0,0.0,1.0,0.0,0.0,0.0,1.0,0.010473920963704586,-0.11507667601108554,-0.2709181010723114,1.2184696791468346e-07,0.0,0.0,0.0,1.2184696791468346e-07,0.0,0.0,0.0,1.2184696791468346e-07,-0.55897905,0.6962721500000014,10.97364135,8.999999999999999e-08,0.0,0.0,0.0,8.999999999999999e-08,0.0,0.0,0.0,8.999999999999999e-08
1536691754.6163275,1446,1536691754,616036408,base_link,-0.1688460670513777,-0.23808330755421156,-0.7130526568826085,-0.6374662758279699,1.0,0.0,0.0,0.0,1.0,0.0,0.0,0.0,1.0,0.13003650307655334,-0.1200496852397919,-0.24473138153553006,1.2184696791468346e-07,0.0,0.0,0.0,1.2184696791468346e-07,0.0,0.0,0.0,1.2184696791468346e-07,-0.46091255,0.5393657500000013,11.01286795,8.999999999999999e-08,0.0,0.0,0.0,8.999999999999999e-08,0.0,0.0,0.0,8.999999999999999e-08
1536691755.077263,1447,1536691755,76982648,base_link,-0.19740995322435007,-0.2404804631222244,-0.6632018103480525,-0.6807068502487295,1.0,0.0,0.0,0.0,1.0,0.0,0.0,0.0,1.0,0.10810796171426773,-0.18730540573596957,-0.25205227732658386,1.2184696791468346e-07,0.0,0.0,0.0,1.2184696791468346e-07,0.0,0.0,0.0,1.2184696791468346e-07,-0.12748645,0.6962721500000014,11.58165365,8.999999999999999e-08,0.0,0.0,0.0,8.999999999999999e-08,0.0,0.0,0.0,8.999999999999999e-08
1536691755.4553068,1448,1536691755,455043480,base_link,-0.22460748796459565,-0.2385686855870047,-0.6163543737542541,-0.7160612715134955,1.0,0.0,0.0,0.0,1.0,0.0,0.0,0.0,1.0,0.09377637505531311,-0.19306147098541263,-0.2683722674846649,1.2184696791468346e-07,0.0,0.0,0.0,1.2184696791468346e-07,0.0,0.0,0.0,1.2184696791468346e-07,0.1176798,0.6668522000000014,11.89546645,8.999999999999999e-08,0.0,0.0,0.0,8.999999999999999e-08,0.0,0.0,0.0,8.999999999999999e-08
1536691755.9198542,1449,1536691755,919483960,base_link,-0.2620399874679971,-0.22669751502589305,-0.5506142623215535,-0.7594519180151883,1.0,0.0,0.0,0.0,1.0,0.0,0.0,0.0,1.0,0.06570354104042053,-0.2859941124916077,-0.2630269825458526,1.2184696791468346e-07,0.0,0.0,0.0,1.2184696791468346e-07,0.0,0.0,0.0,1.2184696791468346e-07,0.24516625,0.6178189500000015,12.6701918,8.999999999999999e-08,0.0,0.0,0.0,8.999999999999999e-08,0.0,0.0,0.0,8.999999999999999e-08
1536691756.2127488,1450,1536691756,212451704,base_link,-0.28356743957281316,-0.2118829331924539,-0.510229840397641,-0.7838116098933969,1.0,0.0,0.0,0.0,1.0,0.0,0.0,0.0,1.0,0.05237940698862076,-0.28691104054450994,-0.2571303248405456,1.2184696791468346e-07,0.0,0.0,0.0,1.2184696791468346e-07,0.0,0.0,0.0,1.2184696791468346e-07,0.40207265000000003,0.7453054000000016,13.03303785,8.999999999999999e-08,0.0,0.0,0.0,8.999999999999999e-08,0.0,0.0,0.0,8.999999999999999e-08
1536691756.6130202,1451,1536691756,612697976,base_link,-0.3093982413383471,-0.18883510192717032,-0.4468984597160217,-0.8178605010882601,1.0,0.0,0.0,0.0,1.0,0.0,0.0,0.0,1.0,0.05417584627866745,-0.2992484867572785,-0.28414332866668696,1.2184696791468346e-07,0.0,0.0,0.0,1.2184696791468346e-07,0.0,0.0,0.0,1.2184696791468346e-07,0.46091255,0.9708583500000015,12.8467115,8.999999999999999e-08,0.0,0.0,0.0,8.999999999999999e-08,0.0,0.0,0.0,8.999999999999999e-08
1536691756.8694854,1452,1536691756,869229400,base_link,-0.3272097038522748,-0.17105168323105796,-0.400940811772431,-0.8384041965686913,1.0,0.0,0.0,0.0,1.0,0.0,0.0,0.0,1.0,0.09780377149581909,-0.32815891504287725,-0.29707962274551386,1.2184696791468346e-07,0.0,0.0,0.0,1.2184696791468346e-07,0.0,0.0,0.0,1.2184696791468346e-07,0.65704555,1.0002783000000017,13.7489233,8.999999999999999e-08,0.0,0.0,0.0,8.999999999999999e-08,0.0,0.0,0.0,8.999999999999999e-08
1536691757.2775173,1453,1536691757,277205560,base_link,-0.3472754226014051,-0.13104047328428706,-0.3266735180677558,-0.8692022709425471,1.0,0.0,0.0,0.0,1.0,0.0,0.0,0.0,1.0,-0.1164119616150856,-0.3383901417255402,-0.27975925803184504,1.2184696791468346e-07,0.0,0.0,0.0,1.2184696791468346e-07,0.0,0.0,0.0,1.2184696791468346e-07,0.99047165,0.9316317500000016,14.19022255,8.999999999999999e-08,0.0,0.0,0.0,8.999999999999999e-08,0.0,0.0,0.0,8.999999999999999e-08
1536691757.6962445,1454,1536691757,696011480,base_link,-0.3833897916142549,-0.0909056977543884,-0.24346301603605802,-0.886269813106817,1.0,0.0,0.0,0.0,1.0,0.0,0.0,0.0,1.0,0.23436951637268066,-0.37582787871360784,-0.27473932504653925,1.2184696791468346e-07,0.0,0.0,0.0,1.2184696791468346e-07,0.0,0.0,0.0,1.2184696791468346e-07,1.10815145,0.9904716500000019,15.75928655,8.999999999999999e-08,0.0,0.0,0.0,8.999999999999999e-08,0.0,0.0,0.0,8.999999999999999e-08
1536691758.0684786,1455,1536691758,68181848,base_link,-0.3990895411252711,-0.05411038480520713,-0.1682524257880178,-0.8997170253124591,1.0,0.0,0.0,0.0,1.0,0.0,0.0,0.0,1.0,0.05326644703745842,-0.37187317013740545,-0.280242770910263,1.2184696791468346e-07,0.0,0.0,0.0,1.2184696791468346e-07,0.0,0.0,0.0,1.2184696791468346e-07,1.2748645,0.9610517000000018,14.9453346,8.999999999999999e-08,0.0,0.0,0.0,8.999999999999999e-08,0.0,0.0,0.0,8.999999999999999e-08
1536691758.4690065,1456,1536691758,468766072,base_link,-0.3919441350384014,-0.001920816019678273,-0.09145004917672245,-0.9154304965317646,1.0,0.0,0.0,0.0,1.0,0.0,0.0,0.0,1.0,-0.12605811655521393,-0.3561003208160401,-0.28632363677024836,1.2184696791468346e-07,0.0,0.0,0.0,1.2184696791468346e-07,0.0,0.0,0.0,1.2184696791468346e-07,0.97085835,1.0395049000000018,15.0434011,8.999999999999999e-08,0.0,0.0,0.0,8.999999999999999e-08,0.0,0.0,0.0,8.999999999999999e-08
1536691758.7477443,1457,1536691758,747350200,base_link,-0.3848732724211941,0.02595151543033625,-0.0379085551093164,-0.921825376344237,1.0,0.0,0.0,0.0,1.0,0.0,0.0,0.0,1.0,-0.028652921319007874,-0.29711577296257025,-0.27029150724411005,1.2184696791468346e-07,0.0,0.0,0.0,1.2184696791468346e-07,0.0,0.0,0.0,1.2184696791468346e-07,0.8237586,1.2650578500000016,14.44519545,8.999999999999999e-08,0.0,0.0,0.0,8.999999999999999e-08,0.0,0.0,0.0,8.999999999999999e-08
1536691759.1965082,1458,1536691759,196113560,base_link,-0.37801409439176925,0.05231757283276877,0.0609283752544596,-0.9223101154725075,1.0,0.0,0.0,0.0,1.0,0.0,0.0,0.0,1.0,-0.006138402968645096,-0.28629538416862493,-0.3513799905776977,1.2184696791468346e-07,0.0,0.0,0.0,1.2184696791468346e-07,0.0,0.0,0.0,1.2184696791468346e-07,0.3530394,0.8335652500000014,11.93469305,8.999999999999999e-08,0.0,0.0,0.0,8.999999999999999e-08,0.0,0.0,0.0,8.999999999999999e-08
1536691759.6790037,1459,1536691759,678674904,base_link,-0.37739151164232265,0.09647458573910923,0.15118379383566077,-0.9085217453249241,1.0,0.0,0.0,0.0,1.0,0.0,0.0,0.0,1.0,-0.01796029508113861,-0.32574129104614263,-0.24034105241298673,1.2184696791468346e-07,0.0,0.0,0.0,1.2184696791468346e-07,0.0,0.0,0.0,1.2184696791468346e-07,0.36284605000000003,0.6080123000000017,14.3373223,8.999999999999999e-08,0.0,0.0,0.0,8.999999999999999e-08,0.0,0.0,0.0,8.999999999999999e-08
1536691760.094091,1460,1536691760,93740504,base_link,-0.3577671519938379,0.12789717718380267,0.21958671118946088,-0.8985692256535549,1.0,0.0,0.0,0.0,1.0,0.0,0.0,0.0,1.0,-0.1381366103887558,-0.21207168698310855,-0.2595585584640503,1.2184696791468346e-07,0.0,0.0,0.0,1.2184696791468346e-07,0.0,0.0,0.0,1.2184696791468346e-07,0.20593965,0.9610517000000017,13.3566573,8.999999999999999e-08,0.0,0.0,0.0,8.999999999999999e-08,0.0,0.0,0.0,8.999999999999999e-08
1536691760.4192417,1461,1536691760,406724824,base_link,-0.34010800629915444,0.133201629083299,0.2718375370823967,-0.8903304013082706,1.0,0.0,0.0,0.0,1.0,0.0,0.0,0.0,1.0,-0.14556080102920532,-0.15085622668266302,-0.3400523364543915,1.2184696791468346e-07,0.0,0.0,0.0,1.2184696791468346e-07,0.0,0.0,0.0,1.2184696791468346e-07,-0.0196133,1.1179581000000014,11.571847,8.999999999999999e-08,0.0,0.0,0.0,8.999999999999999e-08,0.0,0.0,0.0,8.999999999999999e-08
1536691760.8737452,1462,1536691760,873508568,base_link,-0.3414348864342914,0.13924134793548135,0.3556926065558513,-0.8587880035213681,1.0,0.0,0.0,0.0,1.0,0.0,0.0,0.0,1.0,0.07674691081047058,-0.19028894603252414,-0.3195943832397461,1.2184696791468346e-07,0.0,0.0,0.0,1.2184696791468346e-07,0.0,0.0,0.0,1.2184696791468346e-07,-0.196133,0.5982056500000013,10.16949605,8.999999999999999e-08,0.0,0.0,0.0,8.999999999999999e-08,0.0,0.0,0.0,8.999999999999999e-08
