Time,header.seq,header.stamp.secs,header.stamp.nsecs,header.frame_id,orientation.x,orientation.y,orientation.z,orientation.w,orientation_covariance_0,orientation_covariance_1,orientation_covariance_2,orientation_covariance_3,orientation_covariance_4,orientation_covariance_5,orientation_covariance_6,orientation_covariance_7,orientation_covariance_8,angular_velocity.x,angular_velocity.y,angular_velocity.z,angular_velocity_covariance_0,angular_velocity_covariance_1,angular_velocity_covariance_2,angular_velocity_covariance_3,angular_velocity_covariance_4,angular_velocity_covariance_5,angular_velocity_covariance_6,angular_velocity_covariance_7,angular_velocity_covariance_8,linear_acceleration.x,linear_acceleration.y,linear_acceleration.z,linear_acceleration_covariance_0,linear_acceleration_covariance_1,linear_acceleration_covariance_2,linear_acceleration_covariance_3,linear_acceleration_covariance_4,linear_acceleration_covariance_5,linear_acceleration_covariance_6,linear_acceleration_covariance_7,linear_acceleration_covariance_8
1539875881.1914153,1914,1539875881,191131272,base_link,0.003735939947010496,-0.010674606704344019,-0.9992488381122998,-0.037065550793675794,1.0,0.0,0.0,0.0,1.0,0.0,0.0,0.0,1.0,-0.07553517818450928,0.01480605639517307,-0.02800422348082066,1.2184696791468346e-07,0.0,0.0,0.0,1.2184696791468346e-07,0.0,0.0,0.0,1.2184696791468346e-07,0.08825985,0.6668522000000012,10.36562905,8.999999999999999e-08,0.0,0.0,0.0,8.999999999999999e-08,0.0,0.0,0.0,8.999999999999999e-08
1539875881.526489,1915,1539875881,523917320,base_link,0.0025238490709451654,-0.05537281873296452,-0.9971906913661885,-0.05038061317666026,1.0,0.0,0.0,0.0,1.0,0.0,0.0,0.0,1.0,0.8744430541992188,-0.003409390104934591,-0.1450250893831253,1.2184696791468346e-07,0.0,0.0,0.0,1.2184696791468346e-07,0.0,0.0,0.0,1.2184696791468346e-07,0.18632635,0.39226600000000134,10.81673495,8.999999999999999e-08,0.0,0.0,0.0,8.999999999999999e-08,0.0,0.0,0.0,8.999999999999999e-08
1539875882.0420017,1916,1539875882,41767720,base_link,0.0018221322270634598,-0.236942273754322,-0.9684857958292108,-0.07674830303882237,1.0,0.0,0.0,0.0,1.0,0.0,0.0,0.0,1.0,0.2554877996444702,0.039857100695371614,-0.09909684211015701,1.2184696791468346e-07,0.0,0.0,0.0,1.2184696791468346e-07,0.0,0.0,0.0,1.2184696791468346e-07,-0.4903325,0.33342610000000106,8.65927195,8.999999999999999e-08,0.0,0.0,0.0,8.999999999999999e-08,0.0,0.0,0.0,8.999999999999999e-08
1539875882.3380096,1917,1539875882,337633512,base_link,0.007854311000591547,-0.25376488492221777,-0.9629513355763955,-0.09091984541757565,1.0,0.0,0.0,0.0,1.0,0.0,0.0,0.0,1.0,0.06969239562749863,0.025237750262022005,-0.12738925218582153,1.2184696791468346e-07,0.0,0.0,0.0,1.2184696791468346e-07,0.0,0.0,0.0,1.2184696791468346e-07,-0.57859235,0.588399000000001,8.5121722,8.999999999999999e-08,0.0,0.0,0.0,8.999999999999999e-08,0.0,0.0,0.0,8.999999999999999e-08
1539875882.8177102,1918,1539875882,817468584,base_link,0.04464235812382602,-0.2400263821198524,-0.9589107386057011,-0.14451502044516845,1.0,0.0,0.0,0.0,1.0,0.0,0.0,0.0,1.0,-0.19569991528987885,0.13344788551330564,-0.32913461327552795,1.2184696791468346e-07,0.0,0.0,0.0,1.2184696791468346e-07,0.0,0.0,0.0,1.2184696791468346e-07,-1.22583125,0.8139519500000009,6.8450417,8.999999999999999e-08,0.0,0.0,0.0,8.999999999999999e-08,0.0,0.0,0.0,8.999999999999999e-08
1539875883.3123882,1919,1539875883,312005736,base_link,0.08493985483732225,-0.23195225975734113,-0.9474169468994368,-0.20343180425250035,1.0,0.0,0.0,0.0,1.0,0.0,0.0,0.0,1.0,-0.21523037552833557,0.06572598963975904,-0.18895775079727173,1.2184696791468346e-07,0.0,0.0,0.0,1.2184696791468346e-07,0.0,0.0,0.0,1.2184696791468346e-07,-1.3925443,0.08825985000000082,6.67832865,8.999999999999999e-08,0.0,0.0,0.0,8.999999999999999e-08,0.0,0.0,0.0,8.999999999999999e-08
1539875883.6913972,1920,1539875883,691155208,base_link,0.10648739034202732,-0.19713117633253072,-0.947869483624266,-0.22659032863245648,1.0,0.0,0.0,0.0,1.0,0.0,0.0,0.0,1.0,-0.16977928578853607,0.043489616364240626,-0.1585315614938736,1.2184696791468346e-07,0.0,0.0,0.0,1.2184696791468346e-07,0.0,0.0,0.0,1.2184696791468346e-07,-1.7259704,0.657045550000001,8.30623255,8.999999999999999e-08,0.0,0.0,0.0,8.999999999999999e-08,0.0,0.0,0.0,8.999999999999999e-08
1539875883.9746084,1921,1539875883,974227880,base_link,0.12187544652139638,-0.17112878779060292,-0.9470837372849612,-0.24268025897233508,1.0,0.0,0.0,0.0,1.0,0.0,0.0,0.0,1.0,-0.19149543344974518,0.03267249837517737,-0.10707007348537445,1.2184696791468346e-07,0.0,0.0,0.0,1.2184696791468346e-07,0.0,0.0,0.0,1.2184696791468346e-07,-1.6671305,1.068924850000001,8.629852,8.999999999999999e-08,0.0,0.0,0.0,8.999999999999999e-08,0.0,0.0,0.0,8.999999999999999e-08
1539875884.4408374,1922,1539875884,440591816,base_link,0.13642948899927163,-0.13440957231540973,-0.9458185483770265,-0.26219903689251156,1.0,0.0,0.0,0.0,1.0,0.0,0.0,0.0,1.0,-0.03003176674246788,-0.027705991640686992,-0.03627180680632591,1.2184696791468346e-07,0.0,0.0,0.0,1.2184696791468346e-07,0.0,0.0,0.0,1.2184696791468346e-07,-2.04958985,0.14709975000000136,11.1599677,8.999999999999999e-08,0.0,0.0,0.0,8.999999999999999e-08,0.0,0.0,0.0,8.999999999999999e-08
1539875884.7909963,1923,1539875884,790608488,base_link,0.13493991939071656,-0.1296277497886681,-0.9458425307156255,-0.26527301357095195,1.0,0.0,0.0,0.0,1.0,0.0,0.0,0.0,1.0,-0.1175636574625969,-0.029839599505066868,0.015490895137190822,1.2184696791468346e-07,0.0,0.0,0.0,1.2184696791468346e-07,0.0,0.0,0.0,1.2184696791468346e-07,-2.0986231,0.058839900000001236,10.07142955,8.999999999999999e-08,0.0,0.0,0.0,8.999999999999999e-08,0.0,0.0,0.0,8.999999999999999e-08
1539875885.155484,1924,1539875885,155005672,base_link,0.13571049176155067,-0.10545043219466156,-0.9486256642748778,-0.2656543202261995,1.0,0.0,0.0,0.0,1.0,0.0,0.0,0.0,1.0,-0.2296898514032364,-0.018071789294481284,-0.07052236050367355,1.2184696791468346e-07,0.0,0.0,0.0,1.2184696791468346e-07,0.0,0.0,0.0,1.2184696791468346e-07,-1.75539035,0.3824593500000014,11.2188076,8.999999999999999e-08,0.0,0.0,0.0,8.999999999999999e-08,0.0,0.0,0.0,8.999999999999999e-08
1539875885.545659,1925,1539875885,545342344,base_link,0.13911573628935187,-0.07218012953075645,-0.9479993634707123,-0.2770091111799735,1.0,0.0,0.0,0.0,1.0,0.0,0.0,0.0,1.0,-0.060968074947595596,0.012027964927256092,-0.12544557452201843,1.2184696791468346e-07,0.0,0.0,0.0,1.2184696791468346e-07,0.0,0.0,0.0,1.2184696791468346e-07,-1.9809433,0.16671305000000125,10.3754357,8.999999999999999e-08,0.0,0.0,0.0,8.999999999999999e-08,0.0,0.0,0.0,8.999999999999999e-08
1539875885.7645643,1926,1539875885,764345800,base_link,0.1358080938915874,-0.07351366667045818,-0.9444834547715597,-0.2900050104894354,1.0,0.0,0.0,0.0,1.0,0.0,0.0,0.0,1.0,0.05867783725261688,-0.022449312731623657,-0.06404709815979004,1.2184696791468346e-07,0.0,0.0,0.0,1.2184696791468346e-07,0.0,0.0,0.0,1.2184696791468346e-07,-1.7848103,-0.21574629999999878,10.0420096,8.999999999999999e-08,0.0,0.0,0.0,8.999999999999999e-08,0.0,0.0,0.0,8.999999999999999e-08
1539875886.1508064,1927,1539875886,150217224,base_link,0.12458593251549636,-0.08108864224589085,-0.9439195922987679,-0.29481991247622613,1.0,0.0,0.0,0.0,1.0,0.0,0.0,0.0,1.0,-0.1936144232749939,-0.05100279673933983,-0.02066738530993461,1.2184696791468346e-07,0.0,0.0,0.0,1.2184696791468346e-07,0.0,0.0,0.0,1.2184696791468346e-07,-1.8044236,0.4903325000000014,11.66010685,8.999999999999999e-08,0.0,0.0,0.0,8.999999999999999e-08,0.0,0.0,0.0,8.999999999999999e-08
1539875886.63479,1928,1539875886,634508808,base_link,0.10956678506379326,-0.09266015877047387,-0.9485109086433268,-0.2823761157959813,1.0,0.0,0.0,0.0,1.0,0.0,0.0,0.0,1.0,0.07741932570934296,-0.03836160153150556,0.2273186594247818,1.2184696791468346e-07,0.0,0.0,0.0,1.2184696791468346e-07,0.0,0.0,0.0,1.2184696791468346e-07,-1.8240369,-0.03922659999999876,10.13026945,8.999999999999999e-08,0.0,0.0,0.0,8.999999999999999e-08,0.0,0.0,0.0,8.999999999999999e-08
1539875887.0909915,1929,1539875887,90725864,base_link,0.11397779566525494,-0.04976984029867737,-0.9550763065839409,-0.26900050872426146,1.0,0.0,0.0,0.0,1.0,0.0,0.0,0.0,1.0,-0.17525145411491394,-0.03623916953802111,-0.14772532880306244,1.2184696791468346e-07,0.0,0.0,0.0,1.2184696791468346e-07,0.0,0.0,0.0,1.2184696791468346e-07,-1.6475172,0.5491724000000012,10.5127288,8.999999999999999e-08,0.0,0.0,0.0,8.999999999999999e-08,0.0,0.0,0.0,8.999999999999999e-08
1539875887.5125377,1930,1539875887,512234888,base_link,0.09746656708365856,0.0002355177836651885,-0.9491081284952365,-0.29948952111312627,1.0,0.0,0.0,0.0,1.0,0.0,0.0,0.0,1.0,-0.09624388813972473,-0.23059770464897159,-0.1164160147309303,1.2184696791468346e-07,0.0,0.0,0.0,1.2184696791468346e-07,0.0,0.0,0.0,1.2184696791468346e-07,-1.06892485,0.08825985000000136,11.0815145,8.999999999999999e-08,0.0,0.0,0.0,8.999999999999999e-08,0.0,0.0,0.0,8.999999999999999e-08
1539875887.8796768,1931,1539875887,879412744,base_link,0.032813917258770295,-0.024578691039604406,-0.9528583120717915,-0.3006329521137208,1.0,0.0,0.0,0.0,1.0,0.0,0.0,0.0,1.0,0.37711137533187866,-0.30815449357032776,0.1365093290805817,1.2184696791468346e-07,0.0,0.0,0.0,1.2184696791468346e-07,0.0,0.0,0.0,1.2184696791468346e-07,0.2745862,1.940764697309916e-15,15.8475464,8.999999999999999e-08,0.0,0.0,0.0,8.999999999999999e-08,0.0,0.0,0.0,8.999999999999999e-08
1539875888.3204691,1932,1539875888,320138920,base_link,-0.045635132386720414,-0.04055420872548743,-0.9587009238603028,-0.2777864817374992,1.0,0.0,0.0,0.0,1.0,0.0,0.0,0.0,1.0,0.15139901638031006,-0.3067038357257843,0.03515098243951801,1.2184696791468346e-07,0.0,0.0,0.0,1.2184696791468346e-07,0.0,0.0,0.0,1.2184696791468346e-07,1.53964405,0.5982056500000023,18.024622700000002,8.999999999999999e-08,0.0,0.0,0.0,8.999999999999999e-08,0.0,0.0,0.0,8.999999999999999e-08
1539875888.733486,1933,1539875888,732678280,base_link,-0.08455961302754536,-0.023399831337927633,-0.9522476924498929,-0.2924490587467195,1.0,0.0,0.0,0.0,1.0,0.0,0.0,0.0,1.0,0.017870953306555748,-0.13561066985130313,-0.18939009308815,1.2184696791468346e-07,0.0,0.0,0.0,1.2184696791468346e-07,0.0,0.0,0.0,1.2184696791468346e-07,1.3337044,0.4020726500000015,12.160246,8.999999999999999e-08,0.0,0.0,0.0,8.999999999999999e-08,0.0,0.0,0.0,8.999999999999999e-08
1539875889.2005272,1934,1539875889,200271176,base_link,-0.11666036745807919,-0.024378710743102504,-0.94433938947262,-0.30662543048078955,1.0,0.0,0.0,0.0,1.0,0.0,0.0,0.0,1.0,0.13690875470638275,-0.09575703740119934,0.024458764120936404,1.2184696791468346e-07,0.0,0.0,0.0,1.2184696791468346e-07,0.0,0.0,0.0,1.2184696791468346e-07,1.6671305,0.28439285000000186,15.19050085,8.999999999999999e-08,0.0,0.0,0.0,8.999999999999999e-08,0.0,0.0,0.0,8.999999999999999e-08
1539875889.5068614,1935,1539875889,506598792,base_link,-0.11657137831007539,0.005650856924229858,-0.9454427617486846,-0.3041663456596258,1.0,0.0,0.0,0.0,1.0,0.0,0.0,0.0,1.0,-0.27912911772727966,0.02016533352434635,-0.0031872659455984857,1.2184696791468346e-07,0.0,0.0,0.0,1.2184696791468346e-07,0.0,0.0,0.0,1.2184696791468346e-07,1.5298374,0.6374322500000014,11.20900095,8.999999999999999e-08,0.0,0.0,0.0,8.999999999999999e-08,0.0,0.0,0.0,8.999999999999999e-08
1539875889.9784255,1936,1539875889,978010760,base_link,-0.09968918000712781,0.03244521882682834,-0.9417145790282073,-0.3196607996150164,1.0,0.0,0.0,0.0,1.0,0.0,0.0,0.0,1.0,0.09714850783348083,0.0017473725602030771,0.013925441540777683,1.2184696791468346e-07,0.0,0.0,0.0,1.2184696791468346e-07,0.0,0.0,0.0,1.2184696791468346e-07,1.28467115,-0.441299249999999,8.384685750000001,8.999999999999999e-08,0.0,0.0,0.0,8.999999999999999e-08,0.0,0.0,0.0,8.999999999999999e-08
1539875890.3364594,1937,1539875890,335817608,base_link,-0.08466075091261338,0.0857353373623271,-0.9413575592067966,-0.31516337811760925,1.0,0.0,0.0,0.0,1.0,0.0,0.0,0.0,1.0,-0.12029678374528885,0.03741278871893883,-0.01151944044977427,1.2184696791468346e-07,0.0,0.0,0.0,1.2184696791468346e-07,0.0,0.0,0.0,1.2184696791468346e-07,1.42196425,1.108151450000002,17.1420242,8.999999999999999e-08,0.0,0.0,0.0,8.999999999999999e-08,0.0,0.0,0.0,8.999999999999999e-08
1539875890.6458514,1938,1539875890,644441992,base_link,-0.08031975456680279,0.05177136388927546,-0.9412832963556058,-0.3238120116816197,1.0,0.0,0.0,0.0,1.0,0.0,0.0,0.0,1.0,0.34237176179885864,0.16597706079483032,0.0016270952764898335,1.2184696791468346e-07,0.0,0.0,0.0,1.2184696791468346e-07,0.0,0.0,0.0,1.2184696791468346e-07,0.588399,-0.3334260999999991,7.5118939000000005,8.999999999999999e-08,0.0,0.0,0.0,8.999999999999999e-08,0.0,0.0,0.0,8.999999999999999e-08
1539875891.038596,1939,1539875891,38260680,base_link,-0.07197680466881323,-0.03491775087117112,-0.9441433634880556,-0.3196770236429688,1.0,0.0,0.0,0.0,1.0,0.0,0.0,0.0,1.0,0.04690287634730339,0.21193161606788635,-0.02486972883343699,1.2184696791468346e-07,0.0,0.0,0.0,1.2184696791468346e-07,0.0,0.0,0.0,1.2184696791468346e-07,0.3530394,0.17651970000000056,4.5502856000000005,8.999999999999999e-08,0.0,0.0,0.0,8.999999999999999e-08,0.0,0.0,0.0,8.999999999999999e-08
1539875891.506946,1940,1539875891,506656392,base_link,-0.03579828175731552,-0.02999793339606195,-0.9466530967211522,-0.3188518801629407,1.0,0.0,0.0,0.0,1.0,0.0,0.0,0.0,1.0,-0.04520852491259575,0.1847636103630066,-0.04898326471447947,1.2184696791468346e-07,0.0,0.0,0.0,1.2184696791468346e-07,0.0,0.0,0.0,1.2184696791468346e-07,0.26477955,0.23535960000000083,6.8842683000000005,8.999999999999999e-08,0.0,0.0,0.0,8.999999999999999e-08,0.0,0.0,0.0,8.999999999999999e-08
1539875891.869275,1941,1539875891,868931976,base_link,-0.022076219459430207,-0.038506856554229876,-0.9486661240600278,-0.3131492417260734,1.0,0.0,0.0,0.0,1.0,0.0,0.0,0.0,1.0,-0.2123856544494629,0.04904996603727342,0.13745789229869843,1.2184696791468346e-07,0.0,0.0,0.0,1.2184696791468346e-07,0.0,0.0,0.0,1.2184696791468346e-07,0.2157463,0.9022118000000021,17.62255005,8.999999999999999e-08,0.0,0.0,0.0,8.999999999999999e-08,0.0,0.0,0.0,8.999999999999999e-08
1539875892.2728693,1942,1539875892,272423880,base_link,0.004655742114423941,-0.0233504799344977,-0.9503699418123918,-0.31020969174367136,1.0,0.0,0.0,0.0,1.0,0.0,0.0,0.0,1.0,-0.011333772912621498,0.12875737249851227,-0.020348226651549357,1.2184696791468346e-07,0.0,0.0,0.0,1.2184696791468346e-07,0.0,0.0,0.0,1.2184696791468346e-07,-0.2941995,0.647238900000001,8.3552658,8.999999999999999e-08,0.0,0.0,0.0,8.999999999999999e-08,0.0,0.0,0.0,8.999999999999999e-08
1539875892.631046,1943,1539875892,629907016,base_link,0.017246511286698664,-0.04983288886003,-0.9442679338118412,-0.3249266228104712,1.0,0.0,0.0,0.0,1.0,0.0,0.0,0.0,1.0,0.26567313075065613,0.026659887284040455,0.035841554403305054,1.2184696791468346e-07,0.0,0.0,0.0,1.2184696791468346e-07,0.0,0.0,0.0,1.2184696791468346e-07,-0.20593965,-0.5785923499999991,7.256921,8.999999999999999e-08,0.0,0.0,0.0,8.999999999999999e-08,0.0,0.0,0.0,8.999999999999999e-08
1539875893.0102432,1944,1539875893,9827112,base_link,-0.0056748464689410395,-0.06623259397212115,-0.9514606012158657,-0.30050584677709974,1.0,0.0,0.0,0.0,1.0,0.0,0.0,0.0,1.0,-0.3707456588745117,-0.15845140814781186,0.1636314392089844,1.2184696791468346e-07,0.0,0.0,0.0,1.2184696791468346e-07,0.0,0.0,0.0,1.2184696791468346e-07,0.65704555,0.7060788000000026,20.8881645,8.999999999999999e-08,0.0,0.0,0.0,8.999999999999999e-08,0.0,0.0,0.0,8.999999999999999e-08
1539875893.4563437,1945,1539875893,456007144,base_link,0.010687778743921548,-0.01047634202327179,-0.96386662378635,-0.26596456379381683,1.0,0.0,0.0,0.0,1.0,0.0,0.0,0.0,1.0,-0.3553846478462219,0.11604972928762437,0.06768340617418288,1.2184696791468346e-07,0.0,0.0,0.0,1.2184696791468346e-07,0.0,0.0,0.0,1.2184696791468346e-07,-0.4511059,0.5982056500000008,6.5312289,8.999999999999999e-08,0.0,0.0,0.0,8.999999999999999e-08,0.0,0.0,0.0,8.999999999999999e-08
1539875893.971733,1946,1539875893,971434312,base_link,0.05078235597398577,0.04505369163992539,-0.956533793746031,-0.28360962362580633,1.0,0.0,0.0,0.0,1.0,0.0,0.0,0.0,1.0,-0.041635192930698395,0.07766486704349516,-0.0927507132291794,1.2184696791468346e-07,0.0,0.0,0.0,1.2184696791468346e-07,0.0,0.0,0.0,1.2184696791468346e-07,-0.5099458,0.26477955000000086,6.79600845,8.999999999999999e-08,0.0,0.0,0.0,8.999999999999999e-08,0.0,0.0,0.0,8.999999999999999e-08
1539875894.2913997,1947,1539875894,290262856,base_link,0.05186419666060152,0.02329081401845545,-0.9545548979574553,-0.2925621128453589,1.0,0.0,0.0,0.0,1.0,0.0,0.0,0.0,1.0,0.2195502370595932,0.04129535704851151,0.03804656118154525,1.2184696791468346e-07,0.0,0.0,0.0,1.2184696791468346e-07,0.0,0.0,0.0,1.2184696791468346e-07,-0.67665885,-0.147099749999999,8.05125965,8.999999999999999e-08,0.0,0.0,0.0,8.999999999999999e-08,0.0,0.0,0.0,8.999999999999999e-08
1539875894.6087208,1948,1539875894,608340648,base_link,0.057201682762288715,0.012932268920566203,-0.9603817950704779,-0.2724473006049704,1.0,0.0,0.0,0.0,1.0,0.0,0.0,0.0,1.0,0.07787416130304337,0.04176743328571322,0.15299488604068756,1.2184696791468346e-07,0.0,0.0,0.0,1.2184696791468346e-07,0.0,0.0,0.0,1.2184696791468346e-07,-0.588399,-0.07845319999999903,7.93357985,8.999999999999999e-08,0.0,0.0,0.0,8.999999999999999e-08,0.0,0.0,0.0,8.999999999999999e-08
1539875894.8624487,1949,1539875894,861955688,base_link,0.05676457838738242,0.007979459963875057,-0.9676743050392519,-0.24560242308655772,1.0,0.0,0.0,0.0,1.0,0.0,0.0,0.0,1.0,0.013402245938777924,-0.021399656310677504,0.1873610019683838,1.2184696791468346e-07,0.0,0.0,0.0,1.2184696791468346e-07,0.0,0.0,0.0,1.2184696791468346e-07,-0.32361945000000003,0.5491724000000012,9.7085835,8.999999999999999e-08,0.0,0.0,0.0,8.999999999999999e-08,0.0,0.0,0.0,8.999999999999999e-08
1539875895.3882115,1950,1539875895,387857928,base_link,0.0563393494856319,-0.031853046322357706,-0.9631310157876974,-0.26113197346797606,1.0,0.0,0.0,0.0,1.0,0.0,0.0,0.0,1.0,0.2912711799144745,-0.012310395017266301,-0.22419480979442596,1.2184696791468346e-07,0.0,0.0,0.0,1.2184696791468346e-07,0.0,0.0,0.0,1.2184696791468346e-07,-0.24516625,0.5295591000000008,6.56064885,8.999999999999999e-08,0.0,0.0,0.0,8.999999999999999e-08,0.0,0.0,0.0,8.999999999999999e-08
1539875895.8343296,1951,1539875895,832576488,base_link,0.03543292568810725,-0.04060608630916061,-0.9572810011575255,-0.2840928340431698,1.0,0.0,0.0,0.0,1.0,0.0,0.0,0.0,1.0,-0.07581888139247894,-0.19140039384365082,0.04747662693262102,1.2184696791468346e-07,0.0,0.0,0.0,1.2184696791468346e-07,0.0,0.0,0.0,1.2184696791468346e-07,0.30400615,-0.0588398999999985,12.1994726,8.999999999999999e-08,0.0,0.0,0.0,8.999999999999999e-08,0.0,0.0,0.0,8.999999999999999e-08
1539875896.3092456,1952,1539875896,308948136,base_link,-0.010388726586442498,-0.045640418655238234,-0.9639000553591808,-0.2621177403829339,1.0,0.0,0.0,0.0,1.0,0.0,0.0,0.0,1.0,0.01178380474448204,-0.13648781180381775,0.07414578646421434,1.2184696791468346e-07,0.0,0.0,0.0,1.2184696791468346e-07,0.0,0.0,0.0,1.2184696791468346e-07,0.57859235,0.4118793000000016,13.17033095,8.999999999999999e-08,0.0,0.0,0.0,8.999999999999999e-08,0.0,0.0,0.0,8.999999999999999e-08
1539875896.5707521,1953,1539875896,569235080,base_link,-0.02622011528840044,-0.051798791784084544,-0.9644737063104962,-0.2577205086128512,1.0,0.0,0.0,0.0,1.0,0.0,0.0,0.0,1.0,0.03364504501223564,-0.08565518260002136,0.013056044466793548,1.2184696791468346e-07,0.0,0.0,0.0,1.2184696791468346e-07,0.0,0.0,0.0,1.2184696791468346e-07,0.65704555,0.3040061500000014,11.5130071,8.999999999999999e-08,0.0,0.0,0.0,8.999999999999999e-08,0.0,0.0,0.0,8.999999999999999e-08
1539875897.0014074,1954,1539875897,1125896,base_link,-0.03429770650981245,-0.040594928473606115,-0.9642715085780167,-0.2595306857677246,1.0,0.0,0.0,0.0,1.0,0.0,0.0,0.0,1.0,0.07993090152740479,-0.010321535170078281,-0.02295605093240738,1.2184696791468346e-07,0.0,0.0,0.0,1.2184696791468346e-07,0.0,0.0,0.0,1.2184696791468346e-07,0.81395195,0.1863263500000014,11.36590735,8.999999999999999e-08,0.0,0.0,0.0,8.999999999999999e-08,0.0,0.0,0.0,8.999999999999999e-08
1539875897.44751,1955,1539875897,446818856,base_link,-0.033849180058257884,-0.014470118873790863,-0.9637400341437096,-0.2642914967565995,1.0,0.0,0.0,0.0,1.0,0.0,0.0,0.0,1.0,-0.11465921252965927,-0.012799776159226898,-0.02837258204817772,1.2184696791468346e-07,0.0,0.0,0.0,1.2184696791468346e-07,0.0,0.0,0.0,1.2184696791468346e-07,0.8825985000000001,0.5982056500000013,10.395049,8.999999999999999e-08,0.0,0.0,0.0,8.999999999999999e-08,0.0,0.0,0.0,8.999999999999999e-08
1539875897.7784262,1956,1539875897,778148264,base_link,-0.03363086109510737,-0.005340517712512875,-0.9623740454269745,-0.26958605442619565,1.0,0.0,0.0,0.0,1.0,0.0,0.0,0.0,1.0,-0.07834883779287338,-0.036692988127470016,-0.003410863922908898,1.2184696791468346e-07,0.0,0.0,0.0,1.2184696791468346e-07,0.0,0.0,0.0,1.2184696791468346e-07,0.6276256,0.5197524500000011,9.50264385,8.999999999999999e-08,0.0,0.0,0.0,8.999999999999999e-08,0.0,0.0,0.0,8.999999999999999e-08
1539875898.2463312,1957,1539875898,244101352,base_link,-0.04288442014712551,-0.03706116574975779,-0.9612449073023688,-0.2698066431487082,1.0,0.0,0.0,0.0,1.0,0.0,0.0,0.0,1.0,0.3196021616458893,0.012864852324128151,-0.00601619388908148,1.2184696791468346e-07,0.0,0.0,0.0,1.2184696791468346e-07,0.0,0.0,0.0,1.2184696791468346e-07,0.69627215,-0.009806649999998786,9.9243298,8.999999999999999e-08,0.0,0.0,0.0,8.999999999999999e-08,0.0,0.0,0.0,8.999999999999999e-08
1539875898.694501,1958,1539875898,693866600,base_link,-0.04987438251985461,-0.053073298119590676,-0.9610047037737308,-0.26676905802535766,1.0,0.0,0.0,0.0,1.0,0.0,0.0,0.0,1.0,0.031826429069042206,-0.013597386889159681,-0.01645834930241108,1.2184696791468346e-07,0.0,0.0,0.0,1.2184696791468346e-07,0.0,0.0,0.0,1.2184696791468346e-07,0.7256921000000001,0.4216859500000014,11.42474725,8.999999999999999e-08,0.0,0.0,0.0,8.999999999999999e-08,0.0,0.0,0.0,8.999999999999999e-08
1539875899.1089783,1959,1539875899,108711304,base_link,-0.043231728020909785,-0.04044385327118643,-0.9612104658725809,-0.2693877367697365,1.0,0.0,0.0,0.0,1.0,0.0,0.0,0.0,1.0,-0.2217799425125122,0.04628862813115119,-0.06413528323173523,1.2184696791468346e-07,0.0,0.0,0.0,1.2184696791468346e-07,0.0,0.0,0.0,1.2184696791468346e-07,0.6668522,0.5589790500000013,10.1596894,8.999999999999999e-08,0.0,0.0,0.0,8.999999999999999e-08,0.0,0.0,0.0,8.999999999999999e-08
1539875899.3862796,1960,1539875899,385195912,base_link,-0.02870336672289744,-0.01500644346233812,-0.9602779566924468,-0.27715910463840393,1.0,0.0,0.0,0.0,1.0,0.0,0.0,0.0,1.0,-0.11277540028095245,0.038833800703287125,0.022212689742445942,1.2184696791468346e-07,0.0,0.0,0.0,1.2184696791468346e-07,0.0,0.0,0.0,1.2184696791468346e-07,0.75511205,0.29419950000000117,9.3947707,8.999999999999999e-08,0.0,0.0,0.0,8.999999999999999e-08,0.0,0.0,0.0,8.999999999999999e-08
1539875899.7815506,1961,1539875899,781129800,base_link,-0.018416527860799715,-0.007098889324377774,-0.9634172137630065,-0.26727833712637167,1.0,0.0,0.0,0.0,1.0,0.0,0.0,0.0,1.0,-0.0042218477465212345,0.03076036088168622,0.08328050374984741,1.2184696791468346e-07,0.0,0.0,0.0,1.2184696791468346e-07,0.0,0.0,0.0,1.2184696791468346e-07,0.5491724,0.30400615000000114,9.44380395,8.999999999999999e-08,0.0,0.0,0.0,8.999999999999999e-08,0.0,0.0,0.0,8.999999999999999e-08
1539875900.1065383,1962,1539875900,106098728,base_link,-0.013087633757168983,0.0021798395669313745,-0.9655244156800601,-0.2599741619234102,1.0,0.0,0.0,0.0,1.0,0.0,0.0,0.0,1.0,-0.04077283293008804,0.00371479289606214,0.033793650567531586,1.2184696791468346e-07,0.0,0.0,0.0,1.2184696791468346e-07,0.0,0.0,0.0,1.2184696791468346e-07,0.59820565,0.7551120500000013,10.6107953,8.999999999999999e-08,0.0,0.0,0.0,8.999999999999999e-08,0.0,0.0,0.0,8.999999999999999e-08
1539875900.575151,1963,1539875900,573968808,base_link,-0.010652897351072,-0.018969954613267042,-0.9664585967283579,-0.2558992719994554,1.0,0.0,0.0,0.0,1.0,0.0,0.0,0.0,1.0,-0.005562752950936556,0.03710930421948433,0.00394183630123734,1.2184696791468346e-07,0.0,0.0,0.0,1.2184696791468346e-07,0.0,0.0,0.0,1.2184696791468346e-07,0.50013915,0.5393657500000011,8.8652116,8.999999999999999e-08,0.0,0.0,0.0,8.999999999999999e-08,0.0,0.0,0.0,8.999999999999999e-08
1539875900.8593695,1964,1539875900,859009928,base_link,1.0101293848682676e-05,0.01646316938527659,-0.9668787566124697,-0.2547046013783022,1.0,0.0,0.0,0.0,1.0,0.0,0.0,0.0,1.0,-0.2759343683719635,0.034056998789310455,0.006121290381997819,1.2184696791468346e-07,0.0,0.0,0.0,1.2184696791468346e-07,0.0,0.0,0.0,1.2184696791468346e-07,0.24516625,0.647238900000001,8.3552658,8.999999999999999e-08,0.0,0.0,0.0,8.999999999999999e-08,0.0,0.0,0.0,8.999999999999999e-08
1539875901.1921155,1965,1539875901,191397576,base_link,-0.0032495868289370115,-0.018479485050957253,-0.96438619457116,-0.26383179591976713,1.0,0.0,0.0,0.0,1.0,0.0,0.0,0.0,1.0,0.2657657861709595,0.02853181399405002,-0.06319881975650787,1.2184696791468346e-07,0.0,0.0,0.0,1.2184696791468346e-07,0.0,0.0,0.0,1.2184696791468346e-07,0.26477955,0.44129925000000125,10.42446895,8.999999999999999e-08,0.0,0.0,0.0,8.999999999999999e-08,0.0,0.0,0.0,8.999999999999999e-08
1539875901.4679434,1966,1539875901,467504168,base_link,-0.008446487583738135,-0.04523719754879577,-0.9635055563200612,-0.2637030446274719,1.0,0.0,0.0,0.0,1.0,0.0,0.0,0.0,1.0,0.17170968651771545,-0.0073081287555396505,0.044903986155986786,1.2184696791468346e-07,0.0,0.0,0.0,1.2184696791468346e-07,0.0,0.0,0.0,1.2184696791468346e-07,0.30400615,0.06864655000000128,10.4538889,8.999999999999999e-08,0.0,0.0,0.0,8.999999999999999e-08,0.0,0.0,0.0,8.999999999999999e-08
1539875901.826641,1967,1539875901,826392136,base_link,-0.009146695156130242,-0.050815499638039316,-0.9635728228476195,-0.26241482052987664,1.0,0.0,0.0,0.0,1.0,0.0,0.0,0.0,1.0,0.016435563564300537,0.008042611181735985,-0.058377236127853394,1.2184696791468346e-07,0.0,0.0,0.0,1.2184696791468346e-07,0.0,0.0,0.0,1.2184696791468346e-07,0.20593965,0.3236194500000012,9.71839015,8.999999999999999e-08,0.0,0.0,0.0,8.999999999999999e-08,0.0,0.0,0.0,8.999999999999999e-08
1539875902.341237,1968,1539875902,340749672,base_link,-0.007188805944395923,-0.05404400450362351,-0.960694764257391,-0.27220054477304473,1.0,0.0,0.0,0.0,1.0,0.0,0.0,0.0,1.0,-0.061969611793756485,0.035825349390506744,-0.017719231545925144,1.2184696791468346e-07,0.0,0.0,0.0,1.2184696791468346e-07,0.0,0.0,0.0,1.2184696791468346e-07,0.10787315,0.44129925000000114,9.2967042,8.999999999999999e-08,0.0,0.0,0.0,8.999999999999999e-08,0.0,0.0,0.0,8.999999999999999e-08
1539875902.7130904,1969,1539875902,712677672,base_link,-0.0014586220987729479,-0.037286845148054464,-0.9576751183435097,-0.28542237352075717,1.0,0.0,0.0,0.0,1.0,0.0,0.0,0.0,1.0,0.2341206818819046,0.0076098246499895885,-0.1348973661661148,1.2184696791468346e-07,0.0,0.0,0.0,1.2184696791468346e-07,0.0,0.0,0.0,1.2184696791468346e-07,0.16671305,0.7158854500000014,11.434553900000001,8.999999999999999e-08,0.0,0.0,0.0,8.999999999999999e-08,0.0,0.0,0.0,8.999999999999999e-08
1539875903.2391744,1970,1539875903,238925672,base_link,-0.010351035221602006,-0.059215138588612645,-0.956525175818637,-0.28538747599868125,1.0,0.0,0.0,0.0,1.0,0.0,0.0,0.0,1.0,-0.03501901030540466,-0.02509854733943938,0.07404585927724838,1.2184696791468346e-07,0.0,0.0,0.0,1.2184696791468346e-07,0.0,0.0,0.0,1.2184696791468346e-07,0.04903325,0.46091255000000125,10.36562905,8.999999999999999e-08,0.0,0.0,0.0,8.999999999999999e-08,0.0,0.0,0.0,8.999999999999999e-08
1539875903.6423352,1971,1539875903,642013800,base_link,-0.0015019643012893248,-0.0349357166006642,-0.956330431545192,-0.290188465500306,1.0,0.0,0.0,0.0,1.0,0.0,0.0,0.0,1.0,-0.0716618150472641,-0.0022664275020361025,-0.0631595179438591,1.2184696791468346e-07,0.0,0.0,0.0,1.2184696791468346e-07,0.0,0.0,0.0,1.2184696791468346e-07,-0.12748645,0.12748645000000097,7.8845466,8.999999999999999e-08,0.0,0.0,0.0,8.999999999999999e-08,0.0,0.0,0.0,8.999999999999999e-08
1539875903.950615,1972,1539875903,950304104,base_link,-0.002084507178822893,-0.03810898084012411,-0.954491687787147,-0.29578535858691823,1.0,0.0,0.0,0.0,1.0,0.0,0.0,0.0,1.0,0.007665070705115795,0.005122580565512178,-0.023138783872127533,1.2184696791468346e-07,0.0,0.0,0.0,1.2184696791468346e-07,0.0,0.0,0.0,1.2184696791468346e-07,-0.32361945000000003,0.3334261000000009,7.2863409500000005,8.999999999999999e-08,0.0,0.0,0.0,8.999999999999999e-08,0.0,0.0,0.0,8.999999999999999e-08
1539875904.3071432,1973,1539875904,306890536,base_link,-0.004855665088622929,-0.023979660890397648,-0.9551345366534307,-0.2951599825043445,1.0,0.0,0.0,0.0,1.0,0.0,0.0,0.0,1.0,0.03951354697346687,-0.036166373640298836,0.05836719274520875,1.2184696791468346e-07,0.0,0.0,0.0,1.2184696791468346e-07,0.0,0.0,0.0,1.2184696791468346e-07,-0.04903325,-0.029419949999998654,10.99325465,8.999999999999999e-08,0.0,0.0,0.0,8.999999999999999e-08,0.0,0.0,0.0,8.999999999999999e-08
1539875904.6158862,1974,1539875904,615621352,base_link,-0.0057404381389908185,-0.005144399945781946,-0.9580051108608764,-0.2866475014431669,1.0,0.0,0.0,0.0,1.0,0.0,0.0,0.0,1.0,-0.19632236659526825,-0.07874422520399092,0.06728649139404298,1.2184696791468346e-07,0.0,0.0,0.0,1.2184696791468346e-07,0.0,0.0,0.0,1.2184696791468346e-07,0.26477955,0.3530394000000016,12.9055514,8.999999999999999e-08,0.0,0.0,0.0,8.999999999999999e-08,0.0,0.0,0.0,8.999999999999999e-08
1539875904.9387763,1975,1539875904,938412392,base_link,-0.0032874922318293243,0.01349692144390155,-0.9575754372898119,-0.28784771565115536,1.0,0.0,0.0,0.0,1.0,0.0,0.0,0.0,1.0,-0.04780331254005432,-0.013713213615119464,-0.05754819139838219,1.2184696791468346e-07,0.0,0.0,0.0,1.2184696791468346e-07,0.0,0.0,0.0,1.2184696791468346e-07,0.0980665,0.6276256000000012,10.1204628,8.999999999999999e-08,0.0,0.0,0.0,8.999999999999999e-08,0.0,0.0,0.0,8.999999999999999e-08
1539875905.4085982,1976,1539875905,408219720,base_link,-0.007471758837394533,0.019265925771871823,-0.9568091902259634,-0.2899813277146732,1.0,0.0,0.0,0.0,1.0,0.0,0.0,0.0,1.0,-0.2964302897453308,-0.07559213042259216,0.05321725457906724,1.2184696791468346e-07,0.0,0.0,0.0,1.2184696791468346e-07,0.0,0.0,0.0,1.2184696791468346e-07,0.2157463,0.5982056500000013,10.14988275,8.999999999999999e-08,0.0,0.0,0.0,8.999999999999999e-08,0.0,0.0,0.0,8.999999999999999e-08
1539875905.8015625,1977,1539875905,801199400,base_link,-0.01299914832658386,0.023317101540329194,-0.957285332231252,-0.28790992968885787,1.0,0.0,0.0,0.0,1.0,0.0,0.0,0.0,1.0,0.3395138680934906,0.010420695878565306,-0.04816028103232384,1.2184696791468346e-07,0.0,0.0,0.0,1.2184696791468346e-07,0.0,0.0,0.0,1.2184696791468346e-07,0.2745862,0.17651970000000142,11.77778665,8.999999999999999e-08,0.0,0.0,0.0,8.999999999999999e-08,0.0,0.0,0.0,8.999999999999999e-08
1539875906.1346502,1978,1539875906,134312872,base_link,-0.017858888273516716,-0.004682043460313446,-0.9559020564834111,-0.2931047542935037,1.0,0.0,0.0,0.0,1.0,0.0,0.0,0.0,1.0,0.21628114581108093,0.06771598011255263,-0.05942141637206078,1.2184696791468346e-07,0.0,0.0,0.0,1.2184696791468346e-07,0.0,0.0,0.0,1.2184696791468346e-07,0.22555295,0.32361945000000114,9.3751574,8.999999999999999e-08,0.0,0.0,0.0,8.999999999999999e-08,0.0,0.0,0.0,8.999999999999999e-08
1539875906.5737686,1979,1539875906,573112328,base_link,-0.01982196590133108,-0.04365435940480039,-0.9558950929797543,-0.28976880058072074,1.0,0.0,0.0,0.0,1.0,0.0,0.0,0.0,1.0,-0.1834164410829544,0.044427100569009795,0.11234752088785172,1.2184696791468346e-07,0.0,0.0,0.0,1.2184696791468346e-07,0.0,0.0,0.0,1.2184696791468346e-07,0.02941995,0.28439285000000103,8.6102387,8.999999999999999e-08,0.0,0.0,0.0,8.999999999999999e-08,0.0,0.0,0.0,8.999999999999999e-08
1539875907.0301695,1980,1539875907,29858440,base_link,-0.004063596966208703,-0.05950156715923954,-0.9607152892222046,-0.2710519945323894,1.0,0.0,0.0,0.0,1.0,0.0,0.0,0.0,1.0,0.4038885533809662,0.16657687723636627,-0.06305797398090364,1.2184696791468346e-07,0.0,0.0,0.0,1.2184696791468346e-07,0.0,0.0,0.0,1.2184696791468346e-07,0.22555295,0.9806650000000009,7.1196279,8.999999999999999e-08,0.0,0.0,0.0,8.999999999999999e-08,0.0,0.0,0.0,8.999999999999999e-08
