Time,header.seq,header.stamp.secs,header.stamp.nsecs,header.frame_id,orientation.x,orientation.y,orientation.z,orientation.w,orientation_covariance_0,orientation_covariance_1,orientation_covariance_2,orientation_covariance_3,orientation_covariance_4,orientation_covariance_5,orientation_covariance_6,orientation_covariance_7,orientation_covariance_8,angular_velocity.x,angular_velocity.y,angular_velocity.z,angular_velocity_covariance_0,angular_velocity_covariance_1,angular_velocity_covariance_2,angular_velocity_covariance_3,angular_velocity_covariance_4,angular_velocity_covariance_5,angular_velocity_covariance_6,angular_velocity_covariance_7,angular_velocity_covariance_8,linear_acceleration.x,linear_acceleration.y,linear_acceleration.z,linear_acceleration_covariance_0,linear_acceleration_covariance_1,linear_acceleration_covariance_2,linear_acceleration_covariance_3,linear_acceleration_covariance_4,linear_acceleration_covariance_5,linear_acceleration_covariance_6,linear_acceleration_covariance_7,linear_acceleration_covariance_8
1538769533.1973307,1439,1538769533,197063104,base_link,-0.003330056126104095,-0.19424733135656425,-0.9809127078792087,0.008194175256120146,1.0,0.0,0.0,0.0,1.0,0.0,0.0,0.0,1.0,0.7034633755683899,0.02724391780793666,-0.05947721749544144,1.2184696791468346e-07,0.0,0.0,0.0,1.2184696791468346e-07,0.0,0.0,0.0,1.2184696791468346e-07,-1.1571847,0.2647795500000011,8.8063717,8.999999999999999e-08,0.0,0.0,0.0,8.999999999999999e-08,0.0,0.0,0.0,8.999999999999999e-08
1538769533.5921643,1440,1538769533,591720832,base_link,0.0011218332958234333,-0.059755544062860065,-0.9980974423306817,0.015149655334678101,1.0,0.0,0.0,0.0,1.0,0.0,0.0,0.0,1.0,-1.5726208686828613,0.13360032439231873,0.09133609384298323,1.2184696791468346e-07,0.0,0.0,0.0,1.2184696791468346e-07,0.0,0.0,0.0,1.2184696791468346e-07,-1.2552512,1.0689248500000013,9.7870367,8.999999999999999e-08,0.0,0.0,0.0,8.999999999999999e-08,0.0,0.0,0.0,8.999999999999999e-08
1538769534.0133896,1441,1538769534,13085472,base_link,0.049238935023474054,0.18980725235631213,-0.9805746694573367,0.00469593966485677,1.0,0.0,0.0,0.0,1.0,0.0,0.0,0.0,1.0,-0.7652940154075623,0.2373589128255844,-0.04532387107610705,1.2184696791468346e-07,0.0,0.0,0.0,1.2184696791468346e-07,0.0,0.0,0.0,1.2184696791468346e-07,-1.53964405,0.16671305000000067,5.30539765,8.999999999999999e-08,0.0,0.0,0.0,8.999999999999999e-08,0.0,0.0,0.0,8.999999999999999e-08
1538769534.471561,1442,1538769534,470993824,base_link,0.09141853649238475,0.2802473640612833,-0.9549568939993844,0.03407927119733552,1.0,0.0,0.0,0.0,1.0,0.0,0.0,0.0,1.0,-0.14880883693695068,0.07029352337121968,0.2848812937736511,1.2184696791468346e-07,0.0,0.0,0.0,1.2184696791468346e-07,0.0,0.0,0.0,1.2184696791468346e-07,-1.75539035,0.06864655000000076,6.1978028,8.999999999999999e-08,0.0,0.0,0.0,8.999999999999999e-08,0.0,0.0,0.0,8.999999999999999e-08
1538769534.8340313,1443,1538769534,829985824,base_link,0.11221946036097673,0.2935630739957639,-0.9455327626639114,0.08482516744221724,1.0,0.0,0.0,0.0,1.0,0.0,0.0,0.0,1.0,-0.1467459499835968,-0.002042392734438146,0.2878788113594055,1.2184696791468346e-07,0.0,0.0,0.0,1.2184696791468346e-07,0.0,0.0,0.0,1.2184696791468346e-07,-1.83384355,0.24516625000000095,7.63938035,8.999999999999999e-08,0.0,0.0,0.0,8.999999999999999e-08,0.0,0.0,0.0,8.999999999999999e-08
1538769535.273805,1444,1538769535,273295072,base_link,0.12070829705711107,0.30247242891492593,-0.9353594617272023,0.1379949786234107,1.0,0.0,0.0,0.0,1.0,0.0,0.0,0.0,1.0,0.03242617845535278,-0.05499995127320287,0.23869594931602478,1.2184696791468346e-07,0.0,0.0,0.0,1.2184696791468346e-07,0.0,0.0,0.0,1.2184696791468346e-07,-1.95152335,0.127486450000001,8.1199062,8.999999999999999e-08,0.0,0.0,0.0,8.999999999999999e-08,0.0,0.0,0.0,8.999999999999999e-08
1538769535.727766,1445,1538769535,727447776,base_link,0.12699750158112896,0.27735143056563333,-0.9309203087821759,0.20083624486692203,1.0,0.0,0.0,0.0,1.0,0.0,0.0,0.0,1.0,0.12300512194633484,-0.07987767457962033,0.26222068071365356,1.2184696791468346e-07,0.0,0.0,0.0,1.2184696791468346e-07,0.0,0.0,0.0,1.2184696791468346e-07,-2.18688295,0.04903325000000109,8.8848249,8.999999999999999e-08,0.0,0.0,0.0,8.999999999999999e-08,0.0,0.0,0.0,8.999999999999999e-08
1538769535.9829023,1446,1538769535,982259200,base_link,0.12822492227094517,0.24879544569268888,-0.9332845002913186,0.22503163561412898,1.0,0.0,0.0,0.0,1.0,0.0,0.0,0.0,1.0,0.26546603441238403,-0.1331779062747955,0.17936383187770846,1.2184696791468346e-07,0.0,0.0,0.0,1.2184696791468346e-07,0.0,0.0,0.0,1.2184696791468346e-07,-2.1770763,-0.029419949999998647,11.07170785,8.999999999999999e-08,0.0,0.0,0.0,8.999999999999999e-08,0.0,0.0,0.0,8.999999999999999e-08
1538769536.4111128,1447,1538769536,410785120,base_link,0.11246707774069163,0.17690529324355095,-0.9438275383419347,0.2554315006303773,1.0,0.0,0.0,0.0,1.0,0.0,0.0,0.0,1.0,0.2784789204597473,-0.21869260072708127,0.12167055904865268,1.2184696791468346e-07,0.0,0.0,0.0,1.2184696791468346e-07,0.0,0.0,0.0,1.2184696791468346e-07,-1.89268345,-0.049033249999998356,13.4154972,8.999999999999999e-08,0.0,0.0,0.0,8.999999999999999e-08,0.0,0.0,0.0,8.999999999999999e-08
1538769536.7308989,1448,1538769536,730498976,base_link,0.09049663170724949,0.1349771993355668,-0.9461170459878511,0.28009650229946,1.0,0.0,0.0,0.0,1.0,0.0,0.0,0.0,1.0,0.250145822763443,-0.2809990644454956,0.13766381144523623,1.2184696791468346e-07,0.0,0.0,0.0,1.2184696791468346e-07,0.0,0.0,0.0,1.2184696791468346e-07,-1.7063571,0.27458620000000156,12.4348322,8.999999999999999e-08,0.0,0.0,0.0,8.999999999999999e-08,0.0,0.0,0.0,8.999999999999999e-08
1538769537.161501,1449,1538769537,161247552,base_link,0.0558679473722583,0.05808102841648448,-0.9504037454395682,0.3003965499950599,1.0,0.0,0.0,0.0,1.0,0.0,0.0,0.0,1.0,0.34397900104522705,-0.2604767382144928,0.1293866336345673,1.2184696791468346e-07,0.0,0.0,0.0,1.2184696791468346e-07,0.0,0.0,0.0,1.2184696791468346e-07,-1.2356379,-0.10787314999999818,14.83746145,8.999999999999999e-08,0.0,0.0,0.0,8.999999999999999e-08,0.0,0.0,0.0,8.999999999999999e-08
1538769537.5700665,1450,1538769537,569766752,base_link,0.023405469410349638,-0.014679546259609842,-0.9435702321908053,0.3300180477590323,1.0,0.0,0.0,0.0,1.0,0.0,0.0,0.0,1.0,0.13579069077968597,-0.21753720939159393,0.06857176125049594,1.2184696791468346e-07,0.0,0.0,0.0,1.2184696791468346e-07,0.0,0.0,0.0,1.2184696791468346e-07,-0.87279185,0.45110590000000217,17.74022985,8.999999999999999e-08,0.0,0.0,0.0,8.999999999999999e-08,0.0,0.0,0.0,8.999999999999999e-08
1538769538.0058634,1451,1538769538,5420288,base_link,0.011364787391379607,-0.07617400707753214,-0.9411392394503219,0.3291280817860588,1.0,0.0,0.0,0.0,1.0,0.0,0.0,0.0,1.0,0.21698221564292908,-0.12508335709571838,-0.05565349385142325,1.2184696791468346e-07,0.0,0.0,0.0,1.2184696791468346e-07,0.0,0.0,0.0,1.2184696791468346e-07,-0.93163175,0.5295591000000017,14.24906245,8.999999999999999e-08,0.0,0.0,0.0,8.999999999999999e-08,0.0,0.0,0.0,8.999999999999999e-08
1538769538.2992806,1452,1538769538,298741184,base_link,0.010357440552854999,-0.10901003056301362,-0.9429648161461139,0.31436744769834346,1.0,0.0,0.0,0.0,1.0,0.0,0.0,0.0,1.0,0.17776010930538177,-0.0737341344356537,-0.07971984893083571,1.2184696791468346e-07,0.0,0.0,0.0,1.2184696791468346e-07,0.0,0.0,0.0,1.2184696791468346e-07,-0.87279185,0.3040061500000014,11.42474725,8.999999999999999e-08,0.0,0.0,0.0,8.999999999999999e-08,0.0,0.0,0.0,8.999999999999999e-08
1538769538.7756464,1453,1538769538,774264960,base_link,0.006280056472394073,-0.12646748510117684,-0.9427370741158803,0.3085665976581335,1.0,0.0,0.0,0.0,1.0,0.0,0.0,0.0,1.0,0.005932851694524288,-0.005808822344988591,-0.05174398049712181,1.2184696791468346e-07,0.0,0.0,0.0,1.2184696791468346e-07,0.0,0.0,0.0,1.2184696791468346e-07,-0.63743225,0.6080123000000012,9.77723005,8.999999999999999e-08,0.0,0.0,0.0,8.999999999999999e-08,0.0,0.0,0.0,8.999999999999999e-08
1538769539.2325788,1454,1538769539,232332864,base_link,0.01079213594945086,-0.11294804568606599,-0.9518314836034305,0.2848562718260542,1.0,0.0,0.0,0.0,1.0,0.0,0.0,0.0,1.0,0.019346289336681366,0.01286545488983392,-0.055418968200683594,1.2184696791468346e-07,0.0,0.0,0.0,1.2184696791468346e-07,0.0,0.0,0.0,1.2184696791468346e-07,-0.63743225,0.18632635000000108,8.9044382,8.999999999999999e-08,0.0,0.0,0.0,8.999999999999999e-08,0.0,0.0,0.0,8.999999999999999e-08
1538769539.6599324,1455,1538769539,657707520,base_link,0.012811605450324705,-0.09918674435240488,-0.9535484431960042,0.28415351306825787,1.0,0.0,0.0,0.0,1.0,0.0,0.0,0.0,1.0,-0.1953674703836441,0.0386962816119194,0.011351056396961207,1.2184696791468346e-07,0.0,0.0,0.0,1.2184696791468346e-07,0.0,0.0,0.0,1.2184696791468346e-07,-0.57859235,0.6374322500000011,9.1201845,8.999999999999999e-08,0.0,0.0,0.0,8.999999999999999e-08,0.0,0.0,0.0,8.999999999999999e-08
1538769540.0847895,1456,1538769540,83902656,base_link,0.015225096918168524,-0.05387212093003389,-0.9605471441094081,0.27242462251711425,1.0,0.0,0.0,0.0,1.0,0.0,0.0,0.0,1.0,-0.11289661377668381,0.09636569023132323,-0.11138352006673814,1.2184696791468346e-07,0.0,0.0,0.0,1.2184696791468346e-07,0.0,0.0,0.0,1.2184696791468346e-07,-0.50013915,0.627625600000001,7.75706015,8.999999999999999e-08,0.0,0.0,0.0,8.999999999999999e-08,0.0,0.0,0.0,8.999999999999999e-08
1538769540.4678621,1457,1538769540,467598912,base_link,0.027608897253025615,-0.042791185135313735,-0.9676067259937364,0.24727290000901714,1.0,0.0,0.0,0.0,1.0,0.0,0.0,0.0,1.0,0.10128279775381088,0.029921965673565858,-0.06695591658353806,1.2184696791468346e-07,0.0,0.0,0.0,1.2184696791468346e-07,0.0,0.0,0.0,1.2184696791468346e-07,-0.55897905,0.009806650000001091,8.9044382,8.999999999999999e-08,0.0,0.0,0.0,8.999999999999999e-08,0.0,0.0,0.0,8.999999999999999e-08
1538769540.8545063,1458,1538769540,853843520,base_link,0.027543514631734493,-0.05020562743701951,-0.9662962790920956,0.250982570686009,1.0,0.0,0.0,0.0,1.0,0.0,0.0,0.0,1.0,-0.0228550024330616,-0.021012838929891583,0.03894566744565964,1.2184696791468346e-07,0.0,0.0,0.0,1.2184696791468346e-07,0.0,0.0,0.0,1.2184696791468346e-07,-0.5099458,0.36284605000000125,10.1008495,8.999999999999999e-08,0.0,0.0,0.0,8.999999999999999e-08,0.0,0.0,0.0,8.999999999999999e-08
1538769541.162583,1459,1538769541,162292928,base_link,0.024691332009288188,-0.046937276569251306,-0.9658092684250148,0.25377093453783484,1.0,0.0,0.0,0.0,1.0,0.0,0.0,0.0,1.0,-0.02862628921866417,-0.010704907588660715,0.012851092033088209,1.2184696791468346e-07,0.0,0.0,0.0,1.2184696791468346e-07,0.0,0.0,0.0,1.2184696791468346e-07,-0.3726527,0.5982056500000013,10.0223963,8.999999999999999e-08,0.0,0.0,0.0,8.999999999999999e-08,0.0,0.0,0.0,8.999999999999999e-08
1538769541.5421572,1460,1538769541,541660352,base_link,0.02546071263532083,-0.04410037501710832,-0.9671829164683294,0.2489259229716111,1.0,0.0,0.0,0.0,1.0,0.0,0.0,0.0,1.0,-0.007680958136916161,0.003258867189288137,-0.018867935985326767,1.2184696791468346e-07,0.0,0.0,0.0,1.2184696791468346e-07,0.0,0.0,0.0,1.2184696791468346e-07,-0.28439285000000003,0.41187930000000117,9.67916355,8.999999999999999e-08,0.0,0.0,0.0,8.999999999999999e-08,0.0,0.0,0.0,8.999999999999999e-08
1538769542.06676,1461,1538769542,66182592,base_link,0.02093783175878753,-0.033863202107701905,-0.9687588267110542,0.24478812555692991,1.0,0.0,0.0,0.0,1.0,0.0,0.0,0.0,1.0,-0.07838834822177887,-0.04450409114360809,0.001819350523874169,1.2184696791468346e-07,0.0,0.0,0.0,1.2184696791468346e-07,0.0,0.0,0.0,1.2184696791468346e-07,-0.2745862,0.2255529500000012,9.5909037,8.999999999999999e-08,0.0,0.0,0.0,8.999999999999999e-08,0.0,0.0,0.0,8.999999999999999e-08
1538769542.4156632,1462,1538769542,412657344,base_link,0.008438733776875786,-0.016217895818687645,-0.9690243331781568,0.24628765567134175,1.0,0.0,0.0,0.0,1.0,0.0,0.0,0.0,1.0,-0.04887917637825012,-0.04091664776206016,0.029030716046690944,1.2184696791468346e-07,0.0,0.0,0.0,1.2184696791468346e-07,0.0,0.0,0.0,1.2184696791468346e-07,-0.14709975,0.34323275000000125,10.2577559,8.999999999999999e-08,0.0,0.0,0.0,8.999999999999999e-08,0.0,0.0,0.0,8.999999999999999e-08
1538769542.9123373,1463,1538769542,911974656,base_link,0.001876992931452397,-0.00573970214212312,-0.968080735824657,0.25056580301798015,1.0,0.0,0.0,0.0,1.0,0.0,0.0,0.0,1.0,-0.002276909537613392,0.006097896024584769,-0.010233914479613304,1.2184696791468346e-07,0.0,0.0,0.0,1.2184696791468346e-07,0.0,0.0,0.0,1.2184696791468346e-07,-0.04903325,0.48052585000000125,10.38524235,8.999999999999999e-08,0.0,0.0,0.0,8.999999999999999e-08,0.0,0.0,0.0,8.999999999999999e-08
1538769543.162413,1464,1538769543,161964672,base_link,0.00427669209004372,-0.010042511634811018,-0.9688908646194683,0.2472475486668581,1.0,0.0,0.0,0.0,1.0,0.0,0.0,0.0,1.0,0.015021673403680325,0.01358990743756294,-0.01507374830543995,1.2184696791468346e-07,0.0,0.0,0.0,1.2184696791468346e-07,0.0,0.0,0.0,1.2184696791468346e-07,-0.08825985,0.3236194500000012,9.8851032,8.999999999999999e-08,0.0,0.0,0.0,8.999999999999999e-08,0.0,0.0,0.0,8.999999999999999e-08
1538769543.4716997,1465,1538769543,471222752,base_link,0.010167184595042155,-0.02938813336777266,-0.969377084160573,0.24360015328179413,1.0,0.0,0.0,0.0,1.0,0.0,0.0,0.0,1.0,0.16783058643341064,-0.008632902055978772,0.03006700985133648,1.2184696791468346e-07,0.0,0.0,0.0,1.2184696791468346e-07,0.0,0.0,0.0,1.2184696791468346e-07,-0.0784532,0.10787315000000132,10.79712165,8.999999999999999e-08,0.0,0.0,0.0,8.999999999999999e-08,0.0,0.0,0.0,8.999999999999999e-08
1538769543.9720688,1466,1538769543,969775488,base_link,0.014871653083911375,-0.046602047210999815,-0.9654865756783519,0.25581781664924313,1.0,0.0,0.0,0.0,1.0,0.0,0.0,0.0,1.0,0.13094237446784973,0.00806327909231186,0.012455701828002928,1.2184696791468346e-07,0.0,0.0,0.0,1.2184696791468346e-07,0.0,0.0,0.0,1.2184696791468346e-07,-0.0196133,0.5099458000000012,9.95374975,8.999999999999999e-08,0.0,0.0,0.0,8.999999999999999e-08,0.0,0.0,0.0,8.999999999999999e-08
1538769544.424548,1467,1538769544,424217152,base_link,0.021563401325601042,-0.05728764165022008,-0.9664033684748639,0.2496350841485701,1.0,0.0,0.0,0.0,1.0,0.0,0.0,0.0,1.0,0.03594778850674629,0.005700792185962189,-0.08929359912872314,1.2184696791468346e-07,0.0,0.0,0.0,1.2184696791468346e-07,0.0,0.0,0.0,1.2184696791468346e-07,-0.06864655,0.5883990000000012,9.6497436,8.999999999999999e-08,0.0,0.0,0.0,8.999999999999999e-08,0.0,0.0,0.0,8.999999999999999e-08
1538769544.8207643,1468,1538769544,819904672,base_link,0.01766490332258163,-0.05463319358980926,-0.9706522374916051,0.2335324371502226,1.0,0.0,0.0,0.0,1.0,0.0,0.0,0.0,1.0,0.04695874825119972,-0.010040549561381343,-0.02833196520805359,1.2184696791468346e-07,0.0,0.0,0.0,1.2184696791468346e-07,0.0,0.0,0.0,1.2184696791468346e-07,0.04903325,0.3138128000000014,11.13054775,8.999999999999999e-08,0.0,0.0,0.0,8.999999999999999e-08,0.0,0.0,0.0,8.999999999999999e-08
1538769545.0986497,1469,1538769545,98446368,base_link,0.017307735977679446,-0.06595078484475603,-0.9713302463417104,0.22774654507904052,1.0,0.0,0.0,0.0,1.0,0.0,0.0,0.0,1.0,0.03313229978084564,-0.021446425467729575,-0.05084555596113205,1.2184696791468346e-07,0.0,0.0,0.0,1.2184696791468346e-07,0.0,0.0,0.0,1.2184696791468346e-07,0.0392266,0.4511059000000013,10.4342756,8.999999999999999e-08,0.0,0.0,0.0,8.999999999999999e-08,0.0,0.0,0.0,8.999999999999999e-08
1538769545.5597363,1470,1538769545,559319360,base_link,0.012465232569854925,-0.06823805767918192,-0.9706825147526139,0.23013830844666733,1.0,0.0,0.0,0.0,1.0,0.0,0.0,0.0,1.0,-0.10979264974594116,-0.003902636002749203,0.015613257884979248,1.2184696791468346e-07,0.0,0.0,0.0,1.2184696791468346e-07,0.0,0.0,0.0,1.2184696791468346e-07,0.0784532,0.4805258500000012,9.73800345,8.999999999999999e-08,0.0,0.0,0.0,8.999999999999999e-08,0.0,0.0,0.0,8.999999999999999e-08
1538769545.9025874,1471,1538769545,897890528,base_link,0.009791487307845648,-0.06593802096399005,-0.9714786252710159,0.22756446297519672,1.0,0.0,0.0,0.0,1.0,0.0,0.0,0.0,1.0,0.06509023904800415,-0.009321425110101707,-0.06241627782583237,1.2184696791468346e-07,0.0,0.0,0.0,1.2184696791468346e-07,0.0,0.0,0.0,1.2184696791468346e-07,0.1569064,0.6178189500000013,10.05181625,8.999999999999999e-08,0.0,0.0,0.0,8.999999999999999e-08,0.0,0.0,0.0,8.999999999999999e-08
1538769546.3270705,1472,1538769546,326214336,base_link,0.01743939149909776,-0.10320077756846666,-0.9712047648438853,0.21402516645931763,1.0,0.0,0.0,0.0,1.0,0.0,0.0,0.0,1.0,0.25179746747016907,-0.024632256478071216,-0.020361069589853283,1.2184696791468346e-07,0.0,0.0,0.0,1.2184696791468346e-07,0.0,0.0,0.0,1.2184696791468346e-07,0.02941995,0.3040061500000012,10.07142955,8.999999999999999e-08,0.0,0.0,0.0,8.999999999999999e-08,0.0,0.0,0.0,8.999999999999999e-08
1538769546.69247,1473,1538769546,692157952,base_link,0.0262474068533317,-0.1446296769555854,-0.969197588941928,0.1976091186315858,1.0,0.0,0.0,0.0,1.0,0.0,0.0,0.0,1.0,0.2692812383174896,-0.004725293256342431,-0.16494552791118622,1.2184696791468346e-07,0.0,0.0,0.0,1.2184696791468346e-07,0.0,0.0,0.0,1.2184696791468346e-07,0.10787315,0.5982056500000011,9.7870367,8.999999999999999e-08,0.0,0.0,0.0,8.999999999999999e-08,0.0,0.0,0.0,8.999999999999999e-08
1538769547.0392816,1474,1538769547,38866144,base_link,0.03480314110585964,-0.17724502702977152,-0.9675678744446278,0.17659374310854242,1.0,0.0,0.0,0.0,1.0,0.0,0.0,0.0,1.0,0.10575162619352341,-0.0120270811021328,-0.030323438346385956,1.2184696791468346e-07,0.0,0.0,0.0,1.2184696791468346e-07,0.0,0.0,0.0,1.2184696791468346e-07,0.1176798,0.3824593500000012,9.52225715,8.999999999999999e-08,0.0,0.0,0.0,8.999999999999999e-08,0.0,0.0,0.0,8.999999999999999e-08
1538769547.3098,1475,1538769547,309406560,base_link,0.039086530853210774,-0.18809747681588804,-0.9675226336101694,0.16429100941134583,1.0,0.0,0.0,0.0,1.0,0.0,0.0,0.0,1.0,0.07619920372962952,0.019319649785757047,-0.15438580513000488,1.2184696791468346e-07,0.0,0.0,0.0,1.2184696791468346e-07,0.0,0.0,0.0,1.2184696791468346e-07,0.06864655,0.8237586000000011,9.34573745,8.999999999999999e-08,0.0,0.0,0.0,8.999999999999999e-08,0.0,0.0,0.0,8.999999999999999e-08
1538769547.6144037,1476,1538769547,610462144,base_link,0.04533097557488343,-0.19288784865395137,-0.9710330538804213,0.13354470699635557,1.0,0.0,0.0,0.0,1.0,0.0,0.0,0.0,1.0,0.007355902343988419,-0.030784353613853482,-0.23537731170654297,1.2184696791468346e-07,0.0,0.0,0.0,1.2184696791468346e-07,0.0,0.0,0.0,1.2184696791468346e-07,0.1176798,0.7256921000000013,9.7674234,8.999999999999999e-08,0.0,0.0,0.0,8.999999999999999e-08,0.0,0.0,0.0,8.999999999999999e-08
1538769547.915305,1477,1538769547,914985760,base_link,0.047469902073273146,-0.21238919737372286,-0.9715886680207122,0.09302095145631521,1.0,0.0,0.0,0.0,1.0,0.0,0.0,0.0,1.0,0.3310997784137726,-0.06748621165752414,-0.2656271755695343,1.2184696791468346e-07,0.0,0.0,0.0,1.2184696791468346e-07,0.0,0.0,0.0,1.2184696791468346e-07,0.18632635,0.6962721500000013,9.79684335,8.999999999999999e-08,0.0,0.0,0.0,8.999999999999999e-08,0.0,0.0,0.0,8.999999999999999e-08
1538769548.2665222,1478,1538769548,265213344,base_link,0.039701646847207214,-0.2893212950641056,-0.9555560644478263,0.04036799669330109,1.0,0.0,0.0,0.0,1.0,0.0,0.0,0.0,1.0,0.31027886271476746,-0.18879401683807376,-0.19722820818424222,1.2184696791468346e-07,0.0,0.0,0.0,1.2184696791468346e-07,0.0,0.0,0.0,1.2184696791468346e-07,0.3334261,0.5982056500000014,10.8461549,8.999999999999999e-08,0.0,0.0,0.0,8.999999999999999e-08,0.0,0.0,0.0,8.999999999999999e-08
1538769548.6287453,1479,1538769548,628542944,base_link,0.016231244006308626,-0.3147103058847304,-0.9490099679915036,-0.008605274005651595,1.0,0.0,0.0,0.0,1.0,0.0,0.0,0.0,1.0,0.14049281179904938,-0.21967877447605136,-0.25485336780548096,1.2184696791468346e-07,0.0,0.0,0.0,1.2184696791468346e-07,0.0,0.0,0.0,1.2184696791468346e-07,0.5687857000000001,0.9806650000000015,11.44436055,8.999999999999999e-08,0.0,0.0,0.0,8.999999999999999e-08,0.0,0.0,0.0,8.999999999999999e-08
1538769548.9640615,1480,1538769548,956935104,base_link,-0.00645072171216959,-0.3377724097909585,-0.9387030262460491,-0.06859166049827232,1.0,0.0,0.0,0.0,1.0,0.0,0.0,0.0,1.0,0.13087588548660278,-0.25212505459785467,-0.31474062800407404,1.2184696791468346e-07,0.0,0.0,0.0,1.2184696791468346e-07,0.0,0.0,0.0,1.2184696791468346e-07,0.6864655,0.8924051500000014,11.571847,8.999999999999999e-08,0.0,0.0,0.0,8.999999999999999e-08,0.0,0.0,0.0,8.999999999999999e-08
1538769549.422898,1481,1538769549,422490240,base_link,-0.0474030429979147,-0.34603812631865916,-0.9234137737274498,-0.1591149557359069,1.0,0.0,0.0,0.0,1.0,0.0,0.0,0.0,1.0,0.006457507610321045,-0.29887875914573675,-0.31516638398170466,1.2184696791468346e-07,0.0,0.0,0.0,1.2184696791468346e-07,0.0,0.0,0.0,1.2184696791468346e-07,1.0198916,1.1571847000000017,13.17033095,8.999999999999999e-08,0.0,0.0,0.0,8.999999999999999e-08,0.0,0.0,0.0,8.999999999999999e-08
1538769549.8182392,1482,1538769549,817630752,base_link,-0.08575496707101549,-0.3465430244931177,-0.9019566300983581,-0.24295731151670474,1.0,0.0,0.0,0.0,1.0,0.0,0.0,0.0,1.0,0.08295049518346786,-0.3357964456081391,-0.2830293774604797,1.2184696791468346e-07,0.0,0.0,0.0,1.2184696791468346e-07,0.0,0.0,0.0,1.2184696791468346e-07,1.12776475,0.6962721500000016,13.2585908,8.999999999999999e-08,0.0,0.0,0.0,8.999999999999999e-08,0.0,0.0,0.0,8.999999999999999e-08
1538769550.2582576,1483,1538769550,257780480,base_link,-0.1316042614313938,-0.3364829722185539,-0.8741468858587125,-0.32454082905480497,1.0,0.0,0.0,0.0,1.0,0.0,0.0,0.0,1.0,-0.03847115859389305,-0.3087784945964814,-0.32412984967231745,1.2184696791468346e-07,0.0,0.0,0.0,1.2184696791468346e-07,0.0,0.0,0.0,1.2184696791468346e-07,1.22583125,1.3238977500000018,13.4939504,8.999999999999999e-08,0.0,0.0,0.0,8.999999999999999e-08,0.0,0.0,0.0,8.999999999999999e-08
1538769550.6930008,1484,1538769550,692746272,base_link,-0.16894095084840408,-0.32127430009324287,-0.8313379936248012,-0.42085498640496577,1.0,0.0,0.0,0.0,1.0,0.0,0.0,0.0,1.0,0.07900004088878632,-0.34980288147926336,-0.3691644668579101,1.2184696791468346e-07,0.0,0.0,0.0,1.2184696791468346e-07,0.0,0.0,0.0,1.2184696791468346e-07,0.9218251,0.8629852000000017,13.50375705,8.999999999999999e-08,0.0,0.0,0.0,8.999999999999999e-08,0.0,0.0,0.0,8.999999999999999e-08
1538769551.02359,1485,1538769551,23311744,base_link,-0.21374913994459738,-0.3137019914030799,-0.7913120373519422,-0.47929909795930714,1.0,0.0,0.0,0.0,1.0,0.0,0.0,0.0,1.0,0.002279439941048622,-0.4275407791137696,-0.2633123099803924,1.2184696791468346e-07,0.0,0.0,0.0,1.2184696791468346e-07,0.0,0.0,0.0,1.2184696791468346e-07,0.7649187,0.7943386500000017,14.033316150000001,8.999999999999999e-08,0.0,0.0,0.0,8.999999999999999e-08,0.0,0.0,0.0,8.999999999999999e-08
1538769551.3219008,1486,1538769551,321338112,base_link,-0.24738443314916578,-0.28777947768355744,-0.7569253558191754,-0.5320224808949894,1.0,0.0,0.0,0.0,1.0,0.0,0.0,0.0,1.0,-0.25419166684150696,-0.3990446031093598,-0.29347130656242365,1.2184696791468346e-07,0.0,0.0,0.0,1.2184696791468346e-07,0.0,0.0,0.0,1.2184696791468346e-07,1.10815145,1.166991350000002,15.70044665,8.999999999999999e-08,0.0,0.0,0.0,8.999999999999999e-08,0.0,0.0,0.0,8.999999999999999e-08
1538769551.7225742,1487,1538769551,720845984,base_link,-0.2513874025078389,-0.2342466549326694,-0.7161330131909305,-0.6075248027293169,1.0,0.0,0.0,0.0,1.0,0.0,0.0,0.0,1.0,-0.2510557472705841,-0.24604555964469912,-0.3179213106632232,1.2184696791468346e-07,0.0,0.0,0.0,1.2184696791468346e-07,0.0,0.0,0.0,1.2184696791468346e-07,0.6080123,0.9316317500000015,12.4152189,8.999999999999999e-08,0.0,0.0,0.0,8.999999999999999e-08,0.0,0.0,0.0,8.999999999999999e-08
1538769552.117451,1488,1538769552,117065856,base_link,-0.21743619191107938,-0.16876608462300877,-0.684127926971132,-0.6754320770191545,1.0,0.0,0.0,0.0,1.0,0.0,0.0,0.0,1.0,-0.5592544078826904,-0.15935310721397403,-0.219008132815361,1.2184696791468346e-07,0.0,0.0,0.0,1.2184696791468346e-07,0.0,0.0,0.0,1.2184696791468346e-07,0.34323275,0.7256921000000014,10.95402805,8.999999999999999e-08,0.0,0.0,0.0,8.999999999999999e-08,0.0,0.0,0.0,8.999999999999999e-08
1538769552.4951055,1489,1538769552,494806688,base_link,-0.15717380064425943,-0.09690600290124887,-0.6633665022093376,-0.7251555052120134,1.0,0.0,0.0,0.0,1.0,0.0,0.0,0.0,1.0,-0.5597683787345886,-0.07532876729965213,-0.19256272912025452,1.2184696791468346e-07,0.0,0.0,0.0,1.2184696791468346e-07,0.0,0.0,0.0,1.2184696791468346e-07,0.30400615,0.7256921000000015,12.4740588,8.999999999999999e-08,0.0,0.0,0.0,8.999999999999999e-08,0.0,0.0,0.0,8.999999999999999e-08
1538769552.8659317,1490,1538769552,865122752,base_link,-0.08374256547728426,-0.039862199677391505,-0.6398374590255208,-0.7628933174382428,1.0,0.0,0.0,0.0,1.0,0.0,0.0,0.0,1.0,-0.44995102286338806,0.01668609492480752,-0.22178137302398682,1.2184696791468346e-07,0.0,0.0,0.0,1.2184696791468346e-07,0.0,0.0,0.0,1.2184696791468346e-07,0.0392266,0.32361945000000125,10.01258965,8.999999999999999e-08,0.0,0.0,0.0,8.999999999999999e-08,0.0,0.0,0.0,8.999999999999999e-08
1538769553.3687265,1491,1538769553,368045600,base_link,-0.001388679995238491,0.013402331823579604,-0.6288045973716017,-0.7774466074232361,1.0,0.0,0.0,0.0,1.0,0.0,0.0,0.0,1.0,-0.41226068139076233,0.047566935420036316,-0.025914095342159278,1.2184696791468346e-07,0.0,0.0,0.0,1.2184696791468346e-07,0.0,0.0,0.0,1.2184696791468346e-07,-0.12748645,0.28439285000000103,8.36507245,8.999999999999999e-08,0.0,0.0,0.0,8.999999999999999e-08,0.0,0.0,0.0,8.999999999999999e-08
1538769553.7327707,1492,1538769553,731222944,base_link,0.027880384877521484,0.02141379685005561,-0.6335843797630432,-0.7728744834472319,1.0,0.0,0.0,0.0,1.0,0.0,0.0,0.0,1.0,0.003599989227950573,0.0684010833501816,0.08617896586656569,1.2184696791468346e-07,0.0,0.0,0.0,1.2184696791468346e-07,0.0,0.0,0.0,1.2184696791468346e-07,-0.04903325,0.11767980000000097,8.01203305,8.999999999999999e-08,0.0,0.0,0.0,8.999999999999999e-08,0.0,0.0,0.0,8.999999999999999e-08
1538769554.1029427,1493,1538769554,102725056,base_link,0.041895513052789025,0.018081965274036268,-0.6485695620434283,-0.7597863724157388,1.0,0.0,0.0,0.0,1.0,0.0,0.0,0.0,1.0,-0.12812766432762146,0.0619417540729046,0.10928612947463988,1.2184696791468346e-07,0.0,0.0,0.0,1.2184696791468346e-07,0.0,0.0,0.0,1.2184696791468346e-07,-0.0392266,0.40207265000000125,9.99297635,8.999999999999999e-08,0.0,0.0,0.0,8.999999999999999e-08,0.0,0.0,0.0,8.999999999999999e-08
1538769554.510888,1494,1538769554,510599072,base_link,0.023092474127626227,-0.02114689325724021,-0.6575962763259389,-0.7527195253920886,1.0,0.0,0.0,0.0,1.0,0.0,0.0,0.0,1.0,0.5654272437095642,0.08720262348651886,-0.008291615173220645,1.2184696791468346e-07,0.0,0.0,0.0,1.2184696791468346e-07,0.0,0.0,0.0,1.2184696791468346e-07,-0.06864655,0.42168595000000114,9.18883105,8.999999999999999e-08,0.0,0.0,0.0,8.999999999999999e-08,0.0,0.0,0.0,8.999999999999999e-08
1538769554.9670434,1495,1538769554,965368832,base_link,-0.0214887629864305,-0.08363913634713534,-0.6592447034050616,-0.7469532441651154,1.0,0.0,0.0,0.0,1.0,0.0,0.0,0.0,1.0,0.10585803538560867,0.07660185545682907,-0.04236926883459092,1.2184696791468346e-07,0.0,0.0,0.0,1.2184696791468346e-07,0.0,0.0,0.0,1.2184696791468346e-07,-0.2941995,0.8924051500000009,7.2373077,8.999999999999999e-08,0.0,0.0,0.0,8.999999999999999e-08,0.0,0.0,0.0,8.999999999999999e-08
1538769555.4132729,1496,1538769555,413054432,base_link,-0.04977310949591994,-0.12370943627991585,-0.6260483704763803,-0.7682981522627017,1.0,0.0,0.0,0.0,1.0,0.0,0.0,0.0,1.0,0.30748450756073,-0.024455470964312578,-0.20643019676208496,1.2184696791468346e-07,0.0,0.0,0.0,1.2184696791468346e-07,0.0,0.0,0.0,1.2184696791468346e-07,-0.10787315,0.5295591000000012,9.7281968,8.999999999999999e-08,0.0,0.0,0.0,8.999999999999999e-08,0.0,0.0,0.0,8.999999999999999e-08
1538769555.8814445,1497,1538769555,878066816,base_link,-0.10774458586833013,-0.15024807516945446,-0.59671528351349,-0.7808632982445463,1.0,0.0,0.0,0.0,1.0,0.0,0.0,0.0,1.0,0.15449148416519165,-0.13121752440929413,-0.0793425366282463,1.2184696791468346e-07,0.0,0.0,0.0,1.2184696791468346e-07,0.0,0.0,0.0,1.2184696791468346e-07,0.1765197,0.7845320000000015,11.1599677,8.999999999999999e-08,0.0,0.0,0.0,8.999999999999999e-08,0.0,0.0,0.0,8.999999999999999e-08
1538769556.2133532,1498,1538769556,213043584,base_link,-0.1386703797896284,-0.14993815228302246,-0.5775924021483129,-0.7903645318708925,1.0,0.0,0.0,0.0,1.0,0.0,0.0,0.0,1.0,0.20445755124092102,-0.1379484236240387,-0.10694354772567748,1.2184696791468346e-07,0.0,0.0,0.0,1.2184696791468346e-07,0.0,0.0,0.0,1.2184696791468346e-07,0.3530394,0.5982056500000016,12.40541225,8.999999999999999e-08,0.0,0.0,0.0,8.999999999999999e-08,0.0,0.0,0.0,8.999999999999999e-08
1538769556.6701312,1499,1538769556,667857216,base_link,-0.17209257908117176,-0.15157565675773457,-0.5362068444636601,-0.8123368663639341,1.0,0.0,0.0,0.0,1.0,0.0,0.0,0.0,1.0,0.1339065134525299,-0.10222747176885608,-0.27707016468048096,1.2184696791468346e-07,0.0,0.0,0.0,1.2184696791468346e-07,0.0,0.0,0.0,1.2184696791468346e-07,0.34323275,0.8825985000000013,10.69905515,8.999999999999999e-08,0.0,0.0,0.0,8.999999999999999e-08,0.0,0.0,0.0,8.999999999999999e-08
1538769557.0764208,1500,1538769557,75097280,base_link,-0.19694971280035556,-0.14862856378288405,-0.4752753324661292,-0.844531656603176,1.0,0.0,0.0,0.0,1.0,0.0,0.0,0.0,1.0,0.10644599050283432,-0.18827882409095767,-0.2966943681240082,1.2184696791468346e-07,0.0,0.0,0.0,1.2184696791468346e-07,0.0,0.0,0.0,1.2184696791468346e-07,0.46091255,0.39226600000000145,12.0425662,8.999999999999999e-08,0.0,0.0,0.0,8.999999999999999e-08,0.0,0.0,0.0,8.999999999999999e-08
1538769557.4265735,1501,1538769557,425507968,base_link,-0.2082847863298745,-0.12168079361691489,-0.4427929104361671,-0.863565672497318,1.0,0.0,0.0,0.0,1.0,0.0,0.0,0.0,1.0,-0.11639376729726791,-0.21701040863990784,-0.07430630922317502,1.2184696791468346e-07,0.0,0.0,0.0,1.2184696791468346e-07,0.0,0.0,0.0,1.2184696791468346e-07,0.6668522,0.42168595000000153,12.62115855,8.999999999999999e-08,0.0,0.0,0.0,8.999999999999999e-08,0.0,0.0,0.0,8.999999999999999e-08
1538769557.7631598,1502,1538769557,762403232,base_link,-0.2016371754812099,-0.08754071191341097,-0.42595406770589,-0.8776344372382267,1.0,0.0,0.0,0.0,1.0,0.0,0.0,0.0,1.0,-0.12761925160884857,-0.1393191069364548,-0.19981107115745542,1.2184696791468346e-07,0.0,0.0,0.0,1.2184696791468346e-07,0.0,0.0,0.0,1.2184696791468346e-07,0.51975245,1.0493115500000016,12.4544455,8.999999999999999e-08,0.0,0.0,0.0,8.999999999999999e-08,0.0,0.0,0.0,8.999999999999999e-08
1538769558.2233396,1503,1538769558,222877472,base_link,-0.2717075144805295,-0.09830404651833712,-0.36011449991694267,-0.8870337580737859,1.0,0.0,0.0,0.0,1.0,0.0,0.0,0.0,1.0,0.3039165139198303,-0.147957056760788,-0.28244704008102417,1.2184696791468346e-07,0.0,0.0,0.0,1.2184696791468346e-07,0.0,0.0,0.0,1.2184696791468346e-07,0.392266,1.1277647500000014,10.97364135,8.999999999999999e-08,0.0,0.0,0.0,8.999999999999999e-08,0.0,0.0,0.0,8.999999999999999e-08
1538769558.5740488,1504,1538769558,573687424,base_link,-0.3105980832775659,-0.09953623958863497,-0.2946386620833288,-0.8982257102079643,1.0,0.0,0.0,0.0,1.0,0.0,0.0,0.0,1.0,0.1360696703195572,-0.19995068013668063,-0.32663923501968384,1.2184696791468346e-07,0.0,0.0,0.0,1.2184696791468346e-07,0.0,0.0,0.0,1.2184696791468346e-07,0.51975245,0.8335652500000014,11.20900095,8.999999999999999e-08,0.0,0.0,0.0,8.999999999999999e-08,0.0,0.0,0.0,8.999999999999999e-08
1538769559.0027823,1505,1538769559,2414048,base_link,-0.34090615906689165,-0.07862891654393354,-0.21761152746906165,-0.9111781973390103,1.0,0.0,0.0,0.0,1.0,0.0,0.0,0.0,1.0,-0.001438886858522892,-0.2797896564006806,-0.3040455281734466,1.2184696791468346e-07,0.0,0.0,0.0,1.2184696791468346e-07,0.0,0.0,0.0,1.2184696791468346e-07,0.85317855,0.8433719000000015,12.75845165,8.999999999999999e-08,0.0,0.0,0.0,8.999999999999999e-08,0.0,0.0,0.0,8.999999999999999e-08
1538769559.5128527,1506,1538769559,511612096,base_link,-0.3501766809038992,-0.03292437038915779,-0.11778463391054589,-0.9286652023200637,1.0,0.0,0.0,0.0,1.0,0.0,0.0,0.0,1.0,0.024866323918104172,-0.30711191892623907,-0.31883507966995234,1.2184696791468346e-07,0.0,0.0,0.0,1.2184696791468346e-07,0.0,0.0,0.0,1.2184696791468346e-07,1.0198916,1.0591182000000017,14.121576000000001,8.999999999999999e-08,0.0,0.0,0.0,8.999999999999999e-08,0.0,0.0,0.0,8.999999999999999e-08
1538769559.8936386,1507,1538769559,893363872,base_link,-0.36052265469175854,-0.0021445142932763317,-0.03696778567725806,-0.9320151282755946,1.0,0.0,0.0,0.0,1.0,0.0,0.0,0.0,1.0,0.026021238416433334,-0.28678604960441595,-0.3151062130928039,1.2184696791468346e-07,0.0,0.0,0.0,1.2184696791468346e-07,0.0,0.0,0.0,1.2184696791468346e-07,0.67665885,0.9806650000000015,11.01286795,8.999999999999999e-08,0.0,0.0,0.0,8.999999999999999e-08,0.0,0.0,0.0,8.999999999999999e-08
1538769560.245743,1508,1538769560,245268032,base_link,-0.3688330217505216,0.022127036214743597,0.03219534305058808,-0.9286743542386564,1.0,0.0,0.0,0.0,1.0,0.0,0.0,0.0,1.0,0.018944822251796722,-0.2693395912647248,-0.3457880616188049,1.2184696791468346e-07,0.0,0.0,0.0,1.2184696791468346e-07,0.0,0.0,0.0,1.2184696791468346e-07,0.77472535,0.9022118000000015,11.32668075,8.999999999999999e-08,0.0,0.0,0.0,8.999999999999999e-08,0.0,0.0,0.0,8.999999999999999e-08
1538769560.5319555,1509,1538769560,531755968,base_link,-0.36636008623463046,0.040961271567219924,0.09243610673917851,-0.9249637980032807,1.0,0.0,0.0,0.0,1.0,0.0,0.0,0.0,1.0,-0.03735892474651337,-0.2785698771476746,-0.3536207973957061,1.2184696791468346e-07,0.0,0.0,0.0,1.2184696791468346e-07,0.0,0.0,0.0,1.2184696791468346e-07,0.784532,0.8924051500000015,11.99353295,8.999999999999999e-08,0.0,0.0,0.0,8.999999999999999e-08,0.0,0.0,0.0,8.999999999999999e-08
1538769560.8673425,1510,1538769560,866785472,base_link,-0.3427942714696246,0.06699749252370464,0.16709251922713592,-0.9219997361504366,1.0,0.0,0.0,0.0,1.0,0.0,0.0,0.0,1.0,-0.24896758794784546,-0.33056282997131353,-0.2740809023380279,1.2184696791468346e-07,0.0,0.0,0.0,1.2184696791468346e-07,0.0,0.0,0.0,1.2184696791468346e-07,0.75511205,0.9512450500000016,12.75845165,8.999999999999999e-08,0.0,0.0,0.0,8.999999999999999e-08,0.0,0.0,0.0,8.999999999999999e-08
1538769561.350299,1511,1538769561,350001824,base_link,-0.26943297817181894,0.10140141803840082,0.249511423136267,-0.9245905431150485,1.0,0.0,0.0,0.0,1.0,0.0,0.0,0.0,1.0,-0.35398006439208984,-0.21239940822124484,-0.2784115970134735,1.2184696791468346e-07,0.0,0.0,0.0,1.2184696791468346e-07,0.0,0.0,0.0,1.2184696791468346e-07,0.77472535,1.0493115500000016,14.01370285,8.999999999999999e-08,0.0,0.0,0.0,8.999999999999999e-08,0.0,0.0,0.0,8.999999999999999e-08
1538769561.6959534,1512,1538769561,695623136,base_link,-0.20414500909738437,0.09769556920339405,0.30918585545868094,-0.9236798675964184,1.0,0.0,0.0,0.0,1.0,0.0,0.0,0.0,1.0,-0.43845823407173157,-0.12836164236068728,-0.24004726111888883,1.2184696791468346e-07,0.0,0.0,0.0,1.2184696791468346e-07,0.0,0.0,0.0,1.2184696791468346e-07,0.42168595,0.7747253500000015,12.42502555,8.999999999999999e-08,0.0,0.0,0.0,8.999999999999999e-08,0.0,0.0,0.0,8.999999999999999e-08
1538769562.1111114,1513,1538769562,110785504,base_link,-0.10842044677171618,0.0698914914745283,0.3666491310946742,-0.9213732147228981,1.0,0.0,0.0,0.0,1.0,0.0,0.0,0.0,1.0,-0.4365587830543518,-0.04668707400560381,-0.15137715637683868,1.2184696791468346e-07,0.0,0.0,0.0,1.2184696791468346e-07,0.0,0.0,0.0,1.2184696791468346e-07,0.18632635,0.30400615000000125,10.2773692,8.999999999999999e-08,0.0,0.0,0.0,8.999999999999999e-08,0.0,0.0,0.0,8.999999999999999e-08
1538769562.4159126,1514,1538769562,415294624,base_link,-0.05051947639818663,0.05269338124803322,0.37425681933645893,-0.9244474150849574,1.0,0.0,0.0,0.0,1.0,0.0,0.0,0.0,1.0,-0.3844774067401886,0.005489723756909378,0.061110224574804306,1.2184696791468346e-07,0.0,0.0,0.0,1.2184696791468346e-07,0.0,0.0,0.0,1.2184696791468346e-07,0.1176798,0.3726527000000013,10.4735022,8.999999999999999e-08,0.0,0.0,0.0,8.999999999999999e-08,0.0,0.0,0.0,8.999999999999999e-08
1538769562.883287,1515,1538769562,882764128,base_link,0.029509472115893526,0.006888275138637943,0.3869465544367703,-0.9216040943542771,1.0,0.0,0.0,0.0,1.0,0.0,0.0,0.0,1.0,-0.10511337220668793,0.10060635209083556,-0.08990091830492021,1.2184696791468346e-07,0.0,0.0,0.0,1.2184696791468346e-07,0.0,0.0,0.0,1.2184696791468346e-07,-0.12748645,0.509945800000001,8.7867584,8.999999999999999e-08,0.0,0.0,0.0,8.999999999999999e-08,0.0,0.0,0.0,8.999999999999999e-08
1538769563.3275354,1516,1538769563,325942720,base_link,0.027725489844639996,-0.009605540654803148,0.39449900550578576,-0.9184277682303326,1.0,0.0,0.0,0.0,1.0,0.0,0.0,0.0,1.0,0.0003515584394335747,0.05697767436504365,0.06269682943820952,1.2184696791468346e-07,0.0,0.0,0.0,1.2184696791468346e-07,0.0,0.0,0.0,1.2184696791468346e-07,-0.2353596,0.11767980000000093,7.5315072,8.999999999999999e-08,0.0,0.0,0.0,8.999999999999999e-08,0.0,0.0,0.0,8.999999999999999e-08
1538769563.8179638,1517,1538769563,817424448,base_link,0.02669615553236503,-0.025919342446458823,0.37104505146310307,-0.9278691032423045,1.0,0.0,0.0,0.0,1.0,0.0,0.0,0.0,1.0,0.0019532907754182816,0.06437368690967561,0.05767273530364036,1.2184696791468346e-07,0.0,0.0,0.0,1.2184696791468346e-07,0.0,0.0,0.0,1.2184696791468346e-07,-0.18632635,0.5687857000000012,8.89463155,8.999999999999999e-08,0.0,0.0,0.0,8.999999999999999e-08,0.0,0.0,0.0,8.999999999999999e-08
1538769564.1645443,1518,1538769564,164151328,base_link,0.016830669840982977,-0.03434643129454887,0.363632127150656,-0.9307570721267293,1.0,0.0,0.0,0.0,1.0,0.0,0.0,0.0,1.0,0.022098936140537262,0.0651802197098732,0.04698146134614944,1.2184696791468346e-07,0.0,0.0,0.0,1.2184696791468346e-07,0.0,0.0,0.0,1.2184696791468346e-07,-0.24516625,0.421685950000001,8.24739265,8.999999999999999e-08,0.0,0.0,0.0,8.999999999999999e-08,0.0,0.0,0.0,8.999999999999999e-08
1538769564.6613185,1519,1538769564,661039552,base_link,-0.005250216422691858,-0.029966144612567303,0.34927786140398687,-0.9365251950362206,1.0,0.0,0.0,0.0,1.0,0.0,0.0,0.0,1.0,0.2119489461183548,-0.0023009383585303857,0.13552677631378174,1.2184696791468346e-07,0.0,0.0,0.0,1.2184696791468346e-07,0.0,0.0,0.0,1.2184696791468346e-07,-0.04903325,0.5687857000000013,10.198916,8.999999999999999e-08,0.0,0.0,0.0,8.999999999999999e-08,0.0,0.0,0.0,8.999999999999999e-08
1538769565.1124208,1520,1538769565,111605856,base_link,-0.026509685117721553,-0.015955192326867092,0.32364443466203247,-0.945672749076056,1.0,0.0,0.0,0.0,1.0,0.0,0.0,0.0,1.0,0.07607527077198029,-0.004535510204732405,0.10960298776626587,1.2184696791468346e-07,0.0,0.0,0.0,1.2184696791468346e-07,0.0,0.0,0.0,1.2184696791468346e-07,-0.06864655,0.5393657500000013,10.895188150000001,8.999999999999999e-08,0.0,0.0,0.0,8.999999999999999e-08,0.0,0.0,0.0,8.999999999999999e-08
1538769565.4972193,1521,1538769565,497010816,base_link,-0.030039336969275215,-0.01385855060113899,0.3217910620297818,-0.9462325777563501,1.0,0.0,0.0,0.0,1.0,0.0,0.0,0.0,1.0,0.036551278084516525,0.0029371604323387072,-0.06192995235323906,1.2184696791468346e-07,0.0,0.0,0.0,1.2184696791468346e-07,0.0,0.0,0.0,1.2184696791468346e-07,0.06864655,0.48052585000000125,10.48330885,8.999999999999999e-08,0.0,0.0,0.0,8.999999999999999e-08,0.0,0.0,0.0,8.999999999999999e-08
1538769565.8350492,1522,1538769565,832275456,base_link,-0.04987897610603334,-0.002876777424247352,0.32408286178444684,-0.9447084791573896,1.0,0.0,0.0,0.0,1.0,0.0,0.0,0.0,1.0,0.06541630625724792,-0.00647507514804601,0.05726950243115425,1.2184696791468346e-07,0.0,0.0,0.0,1.2184696791468346e-07,0.0,0.0,0.0,1.2184696791468346e-07,0.2941995,0.4020726500000017,13.4351105,8.999999999999999e-08,0.0,0.0,0.0,8.999999999999999e-08,0.0,0.0,0.0,8.999999999999999e-08
1538769566.2900643,1523,1538769566,289072832,base_link,-0.030939266546615926,-0.010007567728667632,0.3238109166190243,-0.9455628485997432,1.0,0.0,0.0,0.0,1.0,0.0,0.0,0.0,1.0,-0.008886775933206081,0.03044243715703487,-0.02978397533297539,1.2184696791468346e-07,0.0,0.0,0.0,1.2184696791468346e-07,0.0,0.0,0.0,1.2184696791468346e-07,-0.18632635,0.40207265000000114,9.34573745,8.999999999999999e-08,0.0,0.0,0.0,8.999999999999999e-08,0.0,0.0,0.0,8.999999999999999e-08
1538769566.7385259,1524,1538769566,738247488,base_link,-0.0005836600117971169,-0.022937932515797628,0.32437110569350824,-0.945651572400777,1.0,0.0,0.0,0.0,1.0,0.0,0.0,0.0,1.0,-0.15484879910945892,0.0302172377705574,-0.03822708874940873,1.2184696791468346e-07,0.0,0.0,0.0,1.2184696791468346e-07,0.0,0.0,0.0,1.2184696791468346e-07,-0.1765197,0.588399000000001,8.1002929,8.999999999999999e-08,0.0,0.0,0.0,8.999999999999999e-08,0.0,0.0,0.0,8.999999999999999e-08
1538769567.0790143,1525,1538769567,78797664,base_link,-0.016119084998841272,-0.019412802858721635,0.33374071828664126,-0.9423271465587125,1.0,0.0,0.0,0.0,1.0,0.0,0.0,0.0,1.0,0.1834573745727539,0.02213446050882339,-0.04175632819533348,1.2184696791468346e-07,0.0,0.0,0.0,1.2184696791468346e-07,0.0,0.0,0.0,1.2184696791468346e-07,-0.0196133,0.5001391500000011,9.30651085,8.999999999999999e-08,0.0,0.0,0.0,8.999999999999999e-08,0.0,0.0,0.0,8.999999999999999e-08
1538769567.5049973,1526,1538769567,504793568,base_link,-0.04074237597427124,-0.014908032438563328,0.3333749722867126,-0.9417955920589219,1.0,0.0,0.0,0.0,1.0,0.0,0.0,0.0,1.0,0.04667719826102257,0.031897615641355515,0.012459331192076203,1.2184696791468346e-07,0.0,0.0,0.0,1.2184696791468346e-07,0.0,0.0,0.0,1.2184696791468346e-07,0.18632635,0.5687857000000012,9.65955025,8.999999999999999e-08,0.0,0.0,0.0,8.999999999999999e-08,0.0,0.0,0.0,8.999999999999999e-08
1538769567.8672528,1527,1538769567,866900416,base_link,-0.049394836197093894,-0.014300672067369239,0.33783591520853445,-0.9397991994733212,1.0,0.0,0.0,0.0,1.0,0.0,0.0,0.0,1.0,0.018212471157312393,-0.010529881343245511,-0.04028761014342308,1.2184696791468346e-07,0.0,0.0,0.0,1.2184696791468346e-07,0.0,0.0,0.0,1.2184696791468346e-07,0.16671305,0.5099458000000012,10.22833595,8.999999999999999e-08,0.0,0.0,0.0,8.999999999999999e-08,0.0,0.0,0.0,8.999999999999999e-08
1538769568.216427,1528,1538769568,215804032,base_link,-0.05036236204990616,-0.012239119130167179,0.34328599227965556,-0.9377998528237483,1.0,0.0,0.0,0.0,1.0,0.0,0.0,0.0,1.0,-0.06535705924034119,-0.031867548823356635,-0.0670730471611023,1.2184696791468346e-07,0.0,0.0,0.0,1.2184696791468346e-07,0.0,0.0,0.0,1.2184696791468346e-07,0.0588399,0.5589790500000011,9.91452315,8.999999999999999e-08,0.0,0.0,0.0,8.999999999999999e-08,0.0,0.0,0.0,8.999999999999999e-08
1538769568.6587183,1529,1538769568,658464640,base_link,-0.04064770999021476,-0.0037069303213315735,0.34647262076545116,-0.9371716733875732,1.0,0.0,0.0,0.0,1.0,0.0,0.0,0.0,1.0,-0.0042432257905602455,-0.07095621526241302,0.01350975129753352,1.2184696791468346e-07,0.0,0.0,0.0,1.2184696791468346e-07,0.0,0.0,0.0,1.2184696791468346e-07,0.28439285000000003,0.4020726500000014,11.26784085,8.999999999999999e-08,0.0,0.0,0.0,8.999999999999999e-08,0.0,0.0,0.0,8.999999999999999e-08
1538769568.9913046,1530,1538769568,990891872,base_link,-0.03637976685117355,0.008159151873114737,0.34365512200530857,-0.938355528530675,1.0,0.0,0.0,0.0,1.0,0.0,0.0,0.0,1.0,0.006533442996442318,-0.06648686528205872,0.04229396209120751,1.2184696791468346e-07,0.0,0.0,0.0,1.2184696791468346e-07,0.0,0.0,0.0,1.2184696791468346e-07,0.2941995,0.45110590000000145,11.85623985,8.999999999999999e-08,0.0,0.0,0.0,8.999999999999999e-08,0.0,0.0,0.0,8.999999999999999e-08
1538769569.4057164,1531,1538769569,405352608,base_link,-0.024999434489817004,0.015129540896923949,0.339123032264337,-0.9402880910951064,1.0,0.0,0.0,0.0,1.0,0.0,0.0,0.0,1.0,-0.02880905196070671,-0.020650619640946385,0.027122277766466144,1.2184696791468346e-07,0.0,0.0,0.0,1.2184696791468346e-07,0.0,0.0,0.0,1.2184696791468346e-07,0.22555295,0.5883990000000013,10.85596155,8.999999999999999e-08,0.0,0.0,0.0,8.999999999999999e-08,0.0,0.0,0.0,8.999999999999999e-08
1538769569.7225497,1532,1538769569,722353824,base_link,-0.02066414350020074,0.017418185341716234,0.33771136259412676,-0.9408616452845886,1.0,0.0,0.0,0.0,1.0,0.0,0.0,0.0,1.0,0.03389327600598335,-0.014198694378137592,-0.025764694437384602,1.2184696791468346e-07,0.0,0.0,0.0,1.2184696791468346e-07,0.0,0.0,0.0,1.2184696791468346e-07,0.12748645,0.6080123000000013,10.0223963,8.999999999999999e-08,0.0,0.0,0.0,8.999999999999999e-08,0.0,0.0,0.0,8.999999999999999e-08
1538769570.1965365,1533,1538769570,196251936,base_link,-0.017219956511428113,0.01946729796496261,0.34525472095653015,-0.9381490686798748,1.0,0.0,0.0,0.0,1.0,0.0,0.0,0.0,1.0,0.04860754311084747,0.016557732596993446,-0.007903442718088629,1.2184696791468346e-07,0.0,0.0,0.0,1.2184696791468346e-07,0.0,0.0,0.0,1.2184696791468346e-07,0.2157463,0.21574630000000122,10.091042850000001,8.999999999999999e-08,0.0,0.0,0.0,8.999999999999999e-08,0.0,0.0,0.0,8.999999999999999e-08
1538769570.5605295,1534,1538769570,560221760,base_link,-0.03574814485671318,0.025346295533128574,0.3338944356826644,-0.9415912814285219,1.0,0.0,0.0,0.0,1.0,0.0,0.0,0.0,1.0,0.12584850192070007,0.011099589988589297,0.08755128085613251,1.2184696791468346e-07,0.0,0.0,0.0,1.2184696791468346e-07,0.0,0.0,0.0,1.2184696791468346e-07,0.2745862,0.3040061500000012,9.9243298,8.999999999999999e-08,0.0,0.0,0.0,8.999999999999999e-08,0.0,0.0,0.0,8.999999999999999e-08
1538769570.919834,1535,1538769570,919508544,base_link,-0.03824369252589625,0.02220377215892433,0.31998700190031915,-0.9463893126503196,1.0,0.0,0.0,0.0,1.0,0.0,0.0,0.0,1.0,-0.026857614517211914,0.046420920640230186,0.035471808165311806,1.2184696791468346e-07,0.0,0.0,0.0,1.2184696791468346e-07,0.0,0.0,0.0,1.2184696791468346e-07,0.24516625,0.6766588500000013,9.93413645,8.999999999999999e-08,0.0,0.0,0.0,8.999999999999999e-08,0.0,0.0,0.0,8.999999999999999e-08
1538769571.277398,1536,1538769571,276566880,base_link,-0.04039799273072657,0.014133766202907882,0.3226550557963867,-0.9455484936296394,1.0,0.0,0.0,0.0,1.0,0.0,0.0,0.0,1.0,0.03019298054277897,0.04775930941104888,-0.045011859387159354,1.2184696791468346e-07,0.0,0.0,0.0,1.2184696791468346e-07,0.0,0.0,0.0,1.2184696791468346e-07,0.22555295,0.5982056500000011,9.3555441,8.999999999999999e-08,0.0,0.0,0.0,8.999999999999999e-08,0.0,0.0,0.0,8.999999999999999e-08
1538769571.7165225,1537,1538769571,716245088,base_link,0.05523180335113678,-0.021703484384038668,0.3214934703689361,-0.9450504511264523,1.0,0.0,0.0,0.0,1.0,0.0,0.0,0.0,1.0,-1.090523600578308,-0.03787363320589064,0.1107833981513977,1.2184696791468346e-07,0.0,0.0,0.0,1.2184696791468346e-07,0.0,0.0,0.0,1.2184696791468346e-07,0.2157463,0.3040061500000012,9.97336305,8.999999999999999e-08,0.0,0.0,0.0,8.999999999999999e-08,0.0,0.0,0.0,8.999999999999999e-08
1538769572.1729596,1538,1538769572,172252288,base_link,0.2376272996652612,-0.07399078451654177,0.26972991166493926,-0.930217396641047,1.0,0.0,0.0,0.0,1.0,0.0,0.0,0.0,1.0,-0.5120261311531067,-0.1168401092290878,0.23052650690078738,1.2184696791468346e-07,0.0,0.0,0.0,1.2184696791468346e-07,0.0,0.0,0.0,1.2184696791468346e-07,0.3334261,0.08825985000000122,10.0223963,8.999999999999999e-08,0.0,0.0,0.0,8.999999999999999e-08,0.0,0.0,0.0,8.999999999999999e-08
1538769572.5854962,1539,1538769572,584249376,base_link,0.31283782298274615,-0.07423099443435568,0.19669868650861944,-0.9262461242577409,1.0,0.0,0.0,0.0,1.0,0.0,0.0,0.0,1.0,-0.3098435699939728,-0.2559297382831573,0.3661968410015107,1.2184696791468346e-07,0.0,0.0,0.0,1.2184696791468346e-07,0.0,0.0,0.0,1.2184696791468346e-07,0.6080123,-0.029419949999998633,11.15016105,8.999999999999999e-08,0.0,0.0,0.0,8.999999999999999e-08,0.0,0.0,0.0,8.999999999999999e-08
1538769573.0031388,1540,1538769573,2841472,base_link,0.3599995811825106,-0.049635192514032735,0.09526151446207831,-0.9267480202702907,1.0,0.0,0.0,0.0,1.0,0.0,0.0,0.0,1.0,-0.13373425602912903,-0.38083082437515253,0.40960288047790533,1.2184696791468346e-07,0.0,0.0,0.0,1.2184696791468346e-07,0.0,0.0,0.0,1.2184696791468346e-07,0.8825985000000001,0.13729310000000156,12.69961175,8.999999999999999e-08,0.0,0.0,0.0,8.999999999999999e-08,0.0,0.0,0.0,8.999999999999999e-08
1538769573.451595,1541,1538769573,451158112,base_link,0.40087757770945376,0.009205739579379453,-0.018357742528698984,-0.9159014222818127,1.0,0.0,0.0,0.0,1.0,0.0,0.0,0.0,1.0,-0.09680387377738953,-0.4720832407474517,0.36272293329238897,1.2184696791468346e-07,0.0,0.0,0.0,1.2184696791468346e-07,0.0,0.0,0.0,1.2184696791468346e-07,1.4317709,-0.10787314999999814,15.19050085,8.999999999999999e-08,0.0,0.0,0.0,8.999999999999999e-08,0.0,0.0,0.0,8.999999999999999e-08
1538769573.891567,1542,1538769573,891287424,base_link,0.3926236530201859,0.07186282950328425,-0.1594990370314851,-0.9029077793500816,1.0,0.0,0.0,0.0,1.0,0.0,0.0,0.0,1.0,0.27370449900627136,-0.5387915968894957,0.474742740392685,1.2184696791468346e-07,0.0,0.0,0.0,1.2184696791468346e-07,0.0,0.0,0.0,1.2184696791468346e-07,2.02997655,0.16671305000000206,16.7105316,8.999999999999999e-08,0.0,0.0,0.0,8.999999999999999e-08,0.0,0.0,0.0,8.999999999999999e-08
1538769574.2797868,1543,1538769574,279545952,base_link,0.29415155077783256,0.113939839436598,-0.2727094281160852,-0.908912617351501,1.0,0.0,0.0,0.0,1.0,0.0,0.0,0.0,1.0,0.5479027032852173,-0.47787764668464655,0.3524910211563111,1.2184696791468346e-07,0.0,0.0,0.0,1.2184696791468346e-07,0.0,0.0,0.0,1.2184696791468346e-07,1.69655045,0.5491724000000021,17.19105745,8.999999999999999e-08,0.0,0.0,0.0,8.999999999999999e-08,0.0,0.0,0.0,8.999999999999999e-08
1538769574.5580115,1544,1538769574,557673696,base_link,0.1872563833151882,0.1245297907825964,-0.3335510702720172,-0.9155168276092746,1.0,0.0,0.0,0.0,1.0,0.0,0.0,0.0,1.0,0.8398140668869019,-0.3189365863800049,0.1999468952417374,1.2184696791468346e-07,0.0,0.0,0.0,1.2184696791468346e-07,0.0,0.0,0.0,1.2184696791468346e-07,1.1964113,0.5197524500000019,15.99464615,8.999999999999999e-08,0.0,0.0,0.0,8.999999999999999e-08,0.0,0.0,0.0,8.999999999999999e-08
1538769574.8716633,1545,1538769574,870729888,base_link,0.06271613017054821,0.11350557198599098,-0.38448170347544547,-0.9139786604933311,1.0,0.0,0.0,0.0,1.0,0.0,0.0,0.0,1.0,0.747513473033905,-0.17798003554344174,0.1933294087648392,1.2184696791468346e-07,0.0,0.0,0.0,1.2184696791468346e-07,0.0,0.0,0.0,1.2184696791468346e-07,1.01008495,0.6374322500000019,16.17116585,8.999999999999999e-08,0.0,0.0,0.0,8.999999999999999e-08,0.0,0.0,0.0,8.999999999999999e-08
1538769575.346712,1546,1538769575,346486560,base_link,-0.07675363355039423,0.06251805972431376,-0.4287257287043589,-0.8979947780984227,1.0,0.0,0.0,0.0,1.0,0.0,0.0,0.0,1.0,0.4630456864833832,0.02249467372894287,-0.010281655937433246,1.2184696791468346e-07,0.0,0.0,0.0,1.2184696791468346e-07,0.0,0.0,0.0,1.2184696791468346e-07,0.1569064,0.8237586000000015,11.2580342,8.999999999999999e-08,0.0,0.0,0.0,8.999999999999999e-08,0.0,0.0,0.0,8.999999999999999e-08
1538769575.7998538,1547,1538769575,799614016,base_link,-0.16120207517363247,0.003018723837126533,-0.41265557531986286,-0.8965044084797035,1.0,0.0,0.0,0.0,1.0,0.0,0.0,0.0,1.0,0.36694639921188354,0.08351287245750424,-0.17219534516334534,1.2184696791468346e-07,0.0,0.0,0.0,1.2184696791468346e-07,0.0,0.0,0.0,1.2184696791468346e-07,-0.14709975,0.598205650000001,8.40429905,8.999999999999999e-08,0.0,0.0,0.0,8.999999999999999e-08,0.0,0.0,0.0,8.999999999999999e-08
1538769576.161276,1548,1538769576,161057216,base_link,-0.18735879557484614,-0.033156441524353764,-0.3980237925686214,-0.8974265388629177,1.0,0.0,0.0,0.0,1.0,0.0,0.0,0.0,1.0,0.03213829547166824,0.09871131181716918,-0.11136986315250398,1.2184696791468346e-07,0.0,0.0,0.0,1.2184696791468346e-07,0.0,0.0,0.0,1.2184696791468346e-07,-0.2353596,0.6570455500000009,6.8058151,8.999999999999999e-08,0.0,0.0,0.0,8.999999999999999e-08,0.0,0.0,0.0,8.999999999999999e-08
1538769576.5006888,1549,1538769576,500302912,base_link,-0.16588491985626683,-0.055336442543639223,-0.37302002832010195,-0.9111948913174199,1.0,0.0,0.0,0.0,1.0,0.0,0.0,0.0,1.0,-0.0974581390619278,0.1252905577421188,-0.23039852082729342,1.2184696791468346e-07,0.0,0.0,0.0,1.2184696791468346e-07,0.0,0.0,0.0,1.2184696791468346e-07,-0.30400615,0.5589790500000008,6.40374245,8.999999999999999e-08,0.0,0.0,0.0,8.999999999999999e-08,0.0,0.0,0.0,8.999999999999999e-08
1538769576.8126109,1550,1538769576,812342656,base_link,-0.15724892138180416,-0.0730830849750337,-0.3492608746561327,-0.9208411811214918,1.0,0.0,0.0,0.0,1.0,0.0,0.0,0.0,1.0,-0.03762965276837349,0.026377093046903593,-0.1398230344057083,1.2184696791468346e-07,0.0,0.0,0.0,1.2184696791468346e-07,0.0,0.0,0.0,1.2184696791468346e-07,-0.32361945000000003,0.3138128000000008,6.0408964,8.999999999999999e-08,0.0,0.0,0.0,8.999999999999999e-08,0.0,0.0,0.0,8.999999999999999e-08
1538769577.329,1551,1538769577,327630080,base_link,-0.08831139854995963,-0.05152317415736587,-0.34203377320171885,-0.9341088573610119,1.0,0.0,0.0,0.0,1.0,0.0,0.0,0.0,1.0,-0.5409676432609558,0.029434785246849053,-0.04830242320895196,1.2184696791468346e-07,0.0,0.0,0.0,1.2184696791468346e-07,0.0,0.0,0.0,1.2184696791468346e-07,-0.2353596,0.7453054000000012,9.9047165,8.999999999999999e-08,0.0,0.0,0.0,8.999999999999999e-08,0.0,0.0,0.0,8.999999999999999e-08
1538769577.8119137,1552,1538769577,804503872,base_link,-0.000660314252720188,-0.02916489918486389,-0.3345122756482649,-0.9419397592634273,1.0,0.0,0.0,0.0,1.0,0.0,0.0,0.0,1.0,-0.21395760774612427,0.03284854814410209,-0.03982184454798699,1.2184696791468346e-07,0.0,0.0,0.0,1.2184696791468346e-07,0.0,0.0,0.0,1.2184696791468346e-07,-0.196133,0.5982056500000011,8.91424485,8.999999999999999e-08,0.0,0.0,0.0,8.999999999999999e-08,0.0,0.0,0.0,8.999999999999999e-08
1538769578.2568288,1553,1538769578,256274048,base_link,0.03195541027451763,-0.015897992513075356,-0.3364023179895195,-0.941041755736439,1.0,0.0,0.0,0.0,1.0,0.0,0.0,0.0,1.0,-0.09587041288614273,-0.04950478300452232,0.05677315220236779,1.2184696791468346e-07,0.0,0.0,0.0,1.2184696791468346e-07,0.0,0.0,0.0,1.2184696791468346e-07,-0.1765197,0.15690640000000133,10.77750835,8.999999999999999e-08,0.0,0.0,0.0,8.999999999999999e-08,0.0,0.0,0.0,8.999999999999999e-08
1538769578.6092336,1554,1538769578,608652544,base_link,0.042718912756039555,-0.003761575432050519,-0.3556665533751577,-0.9336285384741873,1.0,0.0,0.0,0.0,1.0,0.0,0.0,0.0,1.0,-0.0824940949678421,-0.04971465468406676,0.1376430094242096,1.2184696791468346e-07,0.0,0.0,0.0,1.2184696791468346e-07,0.0,0.0,0.0,1.2184696791468346e-07,-0.0980665,0.39226600000000134,10.79712165,8.999999999999999e-08,0.0,0.0,0.0,8.999999999999999e-08,0.0,0.0,0.0,8.999999999999999e-08
1538769578.8950386,1555,1538769578,894627968,base_link,0.04861213780904114,0.0038396296145890487,-0.36711003691575345,-0.9288984541368188,1.0,0.0,0.0,0.0,1.0,0.0,0.0,0.0,1.0,-0.040166862308979034,-0.04860710352659225,0.05554793775081635,1.2184696791468346e-07,0.0,0.0,0.0,1.2184696791468346e-07,0.0,0.0,0.0,1.2184696791468346e-07,-0.0784532,0.42168595000000125,10.2577559,8.999999999999999e-08,0.0,0.0,0.0,8.999999999999999e-08,0.0,0.0,0.0,8.999999999999999e-08
1538769579.317349,1556,1538769579,315065472,base_link,0.042643761503422584,0.011035867868074633,-0.3793581931708302,-0.9242007793220048,1.0,0.0,0.0,0.0,1.0,0.0,0.0,0.0,1.0,0.10333099961280823,-0.03863478824496268,0.08523775637149811,1.2184696791468346e-07,0.0,0.0,0.0,1.2184696791468346e-07,0.0,0.0,0.0,1.2184696791468346e-07,0.02941995,0.22555295000000133,10.79712165,8.999999999999999e-08,0.0,0.0,0.0,8.999999999999999e-08,0.0,0.0,0.0,8.999999999999999e-08
1538769579.7577329,1557,1538769579,757537632,base_link,0.017571276908763107,0.0007122910535443204,-0.3977837994976984,-0.9173106298993954,1.0,0.0,0.0,0.0,1.0,0.0,0.0,0.0,1.0,0.0819082260131836,-0.002438114956021301,0.062297604978084564,1.2184696791468346e-07,0.0,0.0,0.0,1.2184696791468346e-07,0.0,0.0,0.0,1.2184696791468346e-07,-0.0588399,0.20593965000000125,10.20872265,8.999999999999999e-08,0.0,0.0,0.0,8.999999999999999e-08,0.0,0.0,0.0,8.999999999999999e-08
1538769580.1085424,1558,1538769580,108221728,base_link,0.001107411025608504,-0.006331122998464367,-0.4043635648812478,-0.9145757475020466,1.0,0.0,0.0,0.0,1.0,0.0,0.0,0.0,1.0,0.12921884655952454,-0.004082311876118177,0.048270415514707565,1.2184696791468346e-07,0.0,0.0,0.0,1.2184696791468346e-07,0.0,0.0,0.0,1.2184696791468346e-07,-0.0392266,0.3138128000000013,10.4342756,8.999999999999999e-08,0.0,0.0,0.0,8.999999999999999e-08,0.0,0.0,0.0,8.999999999999999e-08
1538769580.5118623,1559,1538769580,511646624,base_link,-0.014695740393498158,-0.01416270033915574,-0.4127018679833848,-0.9106374807223865,1.0,0.0,0.0,0.0,1.0,0.0,0.0,0.0,1.0,0.06100882217288017,0.004975628107786183,0.03777431324124336,1.2184696791468346e-07,0.0,0.0,0.0,1.2184696791468346e-07,0.0,0.0,0.0,1.2184696791468346e-07,-0.0784532,0.5099458000000012,9.7478101,8.999999999999999e-08,0.0,0.0,0.0,8.999999999999999e-08,0.0,0.0,0.0,8.999999999999999e-08
1538769580.933962,1560,1538769580,933527072,base_link,-0.029251022118791895,-0.019312651456867596,-0.409875836377668,-0.911467606639105,1.0,0.0,0.0,0.0,1.0,0.0,0.0,0.0,1.0,0.06984860450029373,-0.03305033966898918,-0.010849121958017346,1.2184696791468346e-07,0.0,0.0,0.0,1.2184696791468346e-07,0.0,0.0,0.0,1.2184696791468346e-07,-0.0588399,0.2647795500000014,11.6699135,8.999999999999999e-08,0.0,0.0,0.0,8.999999999999999e-08,0.0,0.0,0.0,8.999999999999999e-08
