Time,header.seq,header.stamp.secs,header.stamp.nsecs,header.frame_id,orientation.x,orientation.y,orientation.z,orientation.w,orientation_covariance_0,orientation_covariance_1,orientation_covariance_2,orientation_covariance_3,orientation_covariance_4,orientation_covariance_5,orientation_covariance_6,orientation_covariance_7,orientation_covariance_8,angular_velocity.x,angular_velocity.y,angular_velocity.z,angular_velocity_covariance_0,angular_velocity_covariance_1,angular_velocity_covariance_2,angular_velocity_covariance_3,angular_velocity_covariance_4,angular_velocity_covariance_5,angular_velocity_covariance_6,angular_velocity_covariance_7,angular_velocity_covariance_8,linear_acceleration.x,linear_acceleration.y,linear_acceleration.z,linear_acceleration_covariance_0,linear_acceleration_covariance_1,linear_acceleration_covariance_2,linear_acceleration_covariance_3,linear_acceleration_covariance_4,linear_acceleration_covariance_5,linear_acceleration_covariance_6,linear_acceleration_covariance_7,linear_acceleration_covariance_8
1531946412.816994,3250,1531946412,815494976,base_link,0.12231987592212686,-0.38188089527854646,-0.8498434779174064,0.34201007706922615,1.0,0.0,0.0,0.0,1.0,0.0,0.0,0.0,1.0,0.16735520958900452,-0.3600877225399018,-0.3371984958648681,1.2184696791468346e-07,0.0,0.0,0.0,1.2184696791468346e-07,0.0,0.0,0.0,1.2184696791468346e-07,-0.40207265000000003,0.27458620000000133,11.22861425,8.999999999999999e-08,0.0,0.0,0.0,8.999999999999999e-08,0.0,0.0,0.0,8.999999999999999e-08
1531946413.1778975,3251,1531946413,177656638,base_link,0.087681493071638,-0.38591675392545427,-0.8791414177414938,0.26550062603286845,1.0,0.0,0.0,0.0,1.0,0.0,0.0,0.0,1.0,-0.08499357849359512,-0.308204859495163,-0.39500498771667475,1.2184696791468346e-07,0.0,0.0,0.0,1.2184696791468346e-07,0.0,0.0,0.0,1.2184696791468346e-07,-0.73549875,0.5295591000000017,13.44491715,8.999999999999999e-08,0.0,0.0,0.0,8.999999999999999e-08,0.0,0.0,0.0,8.999999999999999e-08
1531946413.6477613,3252,1531946413,647483336,base_link,0.04433683722789292,-0.3697253637337146,-0.915133853634339,0.15449087419315033,1.0,0.0,0.0,0.0,1.0,0.0,0.0,0.0,1.0,-0.07160419225692749,-0.3491587638854981,-0.3345188200473785,1.2184696791468346e-07,0.0,0.0,0.0,1.2184696791468346e-07,0.0,0.0,0.0,1.2184696791468346e-07,-0.87279185,-0.3040061499999986,11.73856005,8.999999999999999e-08,0.0,0.0,0.0,8.999999999999999e-08,0.0,0.0,0.0,8.999999999999999e-08
1531946413.9540293,3253,1531946413,953771703,base_link,0.013611451137410384,-0.37438586843131233,-0.9232470772072625,0.0852337042789602,1.0,0.0,0.0,0.0,1.0,0.0,0.0,0.0,1.0,0.049216147512197495,-0.3331098556518555,-0.29231062531471247,1.2184696791468346e-07,0.0,0.0,0.0,1.2184696791468346e-07,0.0,0.0,0.0,1.2184696791468346e-07,-0.53936575,0.4609125500000018,14.8472681,8.999999999999999e-08,0.0,0.0,0.0,8.999999999999999e-08,0.0,0.0,0.0,8.999999999999999e-08
1531946414.4119642,3254,1531946414,411655646,base_link,-0.03222615209457494,-0.3692774068678632,-0.9287601225571764,-0.0005537559952000904,1.0,0.0,0.0,0.0,1.0,0.0,0.0,0.0,1.0,-0.10174144804477692,-0.2691930234432221,-0.30562070012092585,1.2184696791468346e-07,0.0,0.0,0.0,1.2184696791468346e-07,0.0,0.0,0.0,1.2184696791468346e-07,-0.6472389000000001,-0.2157462999999984,13.1016844,8.999999999999999e-08,0.0,0.0,0.0,8.999999999999999e-08,0.0,0.0,0.0,8.999999999999999e-08
1531946414.7873101,3255,1531946414,786908991,base_link,-0.04102228886300912,-0.3470212500888057,-0.9334253921500636,-0.08130474212948759,1.0,0.0,0.0,0.0,1.0,0.0,0.0,0.0,1.0,-0.05707082897424698,-0.16993381083011633,-0.4548572301864624,1.2184696791468346e-07,0.0,0.0,0.0,1.2184696791468346e-07,0.0,0.0,0.0,1.2184696791468346e-07,-0.7060788,0.7943386500000014,10.87557485,8.999999999999999e-08,0.0,0.0,0.0,8.999999999999999e-08,0.0,0.0,0.0,8.999999999999999e-08
1531946415.14108,3256,1531946415,140763031,base_link,-0.04771056328237163,-0.35879363759962674,-0.915559785623731,-0.1753314196541339,1.0,0.0,0.0,0.0,1.0,0.0,0.0,0.0,1.0,0.2095033973455429,-0.23081630468368536,-0.4182677567005157,1.2184696791468346e-07,0.0,0.0,0.0,1.2184696791468346e-07,0.0,0.0,0.0,1.2184696791468346e-07,-0.4511059,0.7943386500000014,11.03248125,8.999999999999999e-08,0.0,0.0,0.0,8.999999999999999e-08,0.0,0.0,0.0,8.999999999999999e-08
1531946415.5269685,3257,1531946415,526543259,base_link,-0.075037401945129,-0.36409267620158636,-0.893842012119856,-0.2507037471104472,1.0,0.0,0.0,0.0,1.0,0.0,0.0,0.0,1.0,0.07726732641458511,-0.3007367849349976,-0.2621013522148132,1.2184696791468346e-07,0.0,0.0,0.0,1.2184696791468346e-07,0.0,0.0,0.0,1.2184696791468346e-07,-0.51975245,0.7060788000000014,10.9638347,8.999999999999999e-08,0.0,0.0,0.0,8.999999999999999e-08,0.0,0.0,0.0,8.999999999999999e-08
1531946415.964397,3258,1531946415,963468394,base_link,-0.11669359608160637,-0.36117780678603345,-0.8634203696186054,-0.3323228277540446,1.0,0.0,0.0,0.0,1.0,0.0,0.0,0.0,1.0,0.035469017922878265,-0.2804184556007386,-0.3446398973464965,1.2184696791468346e-07,0.0,0.0,0.0,1.2184696791468346e-07,0.0,0.0,0.0,1.2184696791468346e-07,-0.2549729,0.5589790500000015,11.81701325,8.999999999999999e-08,0.0,0.0,0.0,8.999999999999999e-08,0.0,0.0,0.0,8.999999999999999e-08
1531946416.4189386,3259,1531946416,415646911,base_link,-0.12457942819791858,-0.30271955168717085,-0.838659728419751,-0.43530529404442986,1.0,0.0,0.0,0.0,1.0,0.0,0.0,0.0,1.0,-0.05434608832001686,-0.2501776218414307,-0.41009038686752314,1.2184696791468346e-07,0.0,0.0,0.0,1.2184696791468346e-07,0.0,0.0,0.0,1.2184696791468346e-07,-0.4314926,-0.1470997499999984,13.140911000000001,8.999999999999999e-08,0.0,0.0,0.0,8.999999999999999e-08,0.0,0.0,0.0,8.999999999999999e-08
1531946416.747713,3260,1531946416,747502801,base_link,-0.1462400587047583,-0.2908669878730645,-0.8028813583561285,-0.49939139459936355,1.0,0.0,0.0,0.0,1.0,0.0,0.0,0.0,1.0,0.0892036184668541,-0.28609627485275274,-0.3737477362155914,1.2184696791468346e-07,0.0,0.0,0.0,1.2184696791468346e-07,0.0,0.0,0.0,1.2184696791468346e-07,-0.59820565,0.7256921000000014,11.7091401,8.999999999999999e-08,0.0,0.0,0.0,8.999999999999999e-08,0.0,0.0,0.0,8.999999999999999e-08
1531946417.151387,3261,1531946417,151094712,base_link,-0.21918848236633806,-0.3220247087020305,-0.7334797714144403,-0.5570133940123289,1.0,0.0,0.0,0.0,1.0,0.0,0.0,0.0,1.0,0.3285943865776062,-0.3871544301509858,-0.260773479938507,1.2184696791468346e-07,0.0,0.0,0.0,1.2184696791468346e-07,0.0,0.0,0.0,1.2184696791468346e-07,-0.51975245,0.45110590000000156,12.32695905,8.999999999999999e-08,0.0,0.0,0.0,8.999999999999999e-08,0.0,0.0,0.0,8.999999999999999e-08
1531946417.4405727,3262,1531946417,440207345,base_link,-0.24847981339129868,-0.29857428699569116,-0.6993484568946481,-0.6000190941304404,1.0,0.0,0.0,0.0,1.0,0.0,0.0,0.0,1.0,-0.2236471176147461,-0.37332731485366827,-0.2585256397724151,1.2184696791468346e-07,0.0,0.0,0.0,1.2184696791468346e-07,0.0,0.0,0.0,1.2184696791468346e-07,-0.44129925000000003,0.22555295000000147,11.8660465,8.999999999999999e-08,0.0,0.0,0.0,8.999999999999999e-08,0.0,0.0,0.0,8.999999999999999e-08
1531946417.9087121,3263,1531946417,901604508,base_link,-0.2512676465791761,-0.25501820467855957,-0.6322860465014231,-0.6870550490788104,1.0,0.0,0.0,0.0,1.0,0.0,0.0,0.0,1.0,-0.2535926401615143,-0.29568526148796087,-0.5422129034996033,1.2184696791468346e-07,0.0,0.0,0.0,1.2184696791468346e-07,0.0,0.0,0.0,1.2184696791468346e-07,0.10787315,1.4611908500000017,12.73883835,8.999999999999999e-08,0.0,0.0,0.0,8.999999999999999e-08,0.0,0.0,0.0,8.999999999999999e-08
1531946418.3658946,3264,1531946418,358038547,base_link,-0.26511843057134904,-0.22754172586976049,-0.5225073765516979,-0.7777679745326737,1.0,0.0,0.0,0.0,1.0,0.0,0.0,0.0,1.0,0.28624364733695984,-0.36206907033920294,-0.48825412988662714,1.2184696791468346e-07,0.0,0.0,0.0,1.2184696791468346e-07,0.0,0.0,0.0,1.2184696791468346e-07,-0.2353596,0.4216859500000015,12.17005265,8.999999999999999e-08,0.0,0.0,0.0,8.999999999999999e-08,0.0,0.0,0.0,8.999999999999999e-08
1531946418.8226926,3265,1531946418,822238800,base_link,-0.27951605881802916,-0.16047808368728256,-0.431891654921399,-0.84236996380934,1.0,0.0,0.0,0.0,1.0,0.0,0.0,0.0,1.0,-0.362124502658844,-0.4466925263404847,-0.2974011898040771,1.2184696791468346e-07,0.0,0.0,0.0,1.2184696791468346e-07,0.0,0.0,0.0,1.2184696791468346e-07,-0.0588399,0.7453054000000018,14.32751565,8.999999999999999e-08,0.0,0.0,0.0,8.999999999999999e-08,0.0,0.0,0.0,8.999999999999999e-08
1531946419.1685216,3266,1531946419,167988418,base_link,-0.2470452194192432,-0.08866622219867942,-0.3740120615076527,-0.8895065702117709,1.0,0.0,0.0,0.0,1.0,0.0,0.0,0.0,1.0,-0.3234354853630066,-0.3291479945182801,-0.29030352830886835,1.2184696791468346e-07,0.0,0.0,0.0,1.2184696791468346e-07,0.0,0.0,0.0,1.2184696791468346e-07,0.18632635,0.31381280000000183,14.85707475,8.999999999999999e-08,0.0,0.0,0.0,8.999999999999999e-08,0.0,0.0,0.0,8.999999999999999e-08
1531946419.6067808,3267,1531946419,606526959,base_link,-0.20796169495889147,-0.03182153071914632,-0.301311720715078,-0.9300271880822808,1.0,0.0,0.0,0.0,1.0,0.0,0.0,0.0,1.0,-0.22361795604228973,-0.21310956776142123,-0.29627639055252075,1.2184696791468346e-07,0.0,0.0,0.0,1.2184696791468346e-07,0.0,0.0,0.0,1.2184696791468346e-07,-0.02941995,0.08825985000000164,13.3762706,8.999999999999999e-08,0.0,0.0,0.0,8.999999999999999e-08,0.0,0.0,0.0,8.999999999999999e-08
1531946420.0932746,3268,1531946420,92581453,base_link,-0.17652922018173253,0.012176839352071521,-0.24208870541035094,-0.9539822942372482,1.0,0.0,0.0,0.0,1.0,0.0,0.0,0.0,1.0,-0.24046702682971954,-0.13016344606876376,-0.1859128028154373,1.2184696791468346e-07,0.0,0.0,0.0,1.2184696791468346e-07,0.0,0.0,0.0,1.2184696791468346e-07,-0.0980665,0.41187930000000145,11.8660465,8.999999999999999e-08,0.0,0.0,0.0,8.999999999999999e-08,0.0,0.0,0.0,8.999999999999999e-08
1531946420.6056564,3269,1531946420,605323297,base_link,-0.08323127666804146,0.03727724101802245,-0.19168215980776304,-0.97721078150915,1.0,0.0,0.0,0.0,1.0,0.0,0.0,0.0,1.0,-0.7455623149871826,0.053800337016582475,-0.13459527492523193,1.2184696791468346e-07,0.0,0.0,0.0,1.2184696791468346e-07,0.0,0.0,0.0,1.2184696791468346e-07,-0.24516625,-0.06864654999999882,9.67916355,8.999999999999999e-08,0.0,0.0,0.0,8.999999999999999e-08,0.0,0.0,0.0,8.999999999999999e-08
1531946420.978828,3270,1531946420,978539804,base_link,-0.01384180880883869,0.03682416970530012,-0.1650589217666863,-0.985498826584605,1.0,0.0,0.0,0.0,1.0,0.0,0.0,0.0,1.0,-0.1935158669948578,0.06828267872333525,-0.0814727619290352,1.2184696791468346e-07,0.0,0.0,0.0,1.2184696791468346e-07,0.0,0.0,0.0,1.2184696791468346e-07,-0.00980665,0.529559100000001,8.237586,8.999999999999999e-08,0.0,0.0,0.0,8.999999999999999e-08,0.0,0.0,0.0,8.999999999999999e-08
1531946421.299107,3271,1531946421,298736658,base_link,0.02384641029057792,0.024115395622571728,-0.16548102476496812,-0.9856296600919416,1.0,0.0,0.0,0.0,1.0,0.0,0.0,0.0,1.0,-0.21623387932777405,0.13640208542346954,0.1058797463774681,1.2184696791468346e-07,0.0,0.0,0.0,1.2184696791468346e-07,0.0,0.0,0.0,1.2184696791468346e-07,-0.08825985,0.11767980000000074,5.9624432,8.999999999999999e-08,0.0,0.0,0.0,8.999999999999999e-08,0.0,0.0,0.0,8.999999999999999e-08
1531946421.6213706,3272,1531946421,621061626,base_link,0.04515293005814933,0.011437403139087256,-0.18663726820645454,-0.9813240692212892,1.0,0.0,0.0,0.0,1.0,0.0,0.0,0.0,1.0,0.00954197533428669,0.12034843862056734,0.1676887273788452,1.2184696791468346e-07,0.0,0.0,0.0,1.2184696791468346e-07,0.0,0.0,0.0,1.2184696791468346e-07,0.32361945000000003,-0.0686465499999992,6.63910205,8.999999999999999e-08,0.0,0.0,0.0,8.999999999999999e-08,0.0,0.0,0.0,8.999999999999999e-08
1531946422.0409358,3273,1531946422,39463508,base_link,-0.008541861155812963,-0.017156929717089906,-0.22539828378037746,-0.9740781745011734,1.0,0.0,0.0,0.0,1.0,0.0,0.0,0.0,1.0,-0.03244706243276596,0.04947154968976977,0.23513244092464447,1.2184696791468346e-07,0.0,0.0,0.0,1.2184696791468346e-07,0.0,0.0,0.0,1.2184696791468346e-07,0.9022118,0.35303940000000106,8.7083052,8.999999999999999e-08,0.0,0.0,0.0,8.999999999999999e-08,0.0,0.0,0.0,8.999999999999999e-08
1531946422.4294362,3274,1531946422,428963197,base_link,0.015974187351370003,-0.027823534007067885,-0.23790033434284058,-0.970759551698249,1.0,0.0,0.0,0.0,1.0,0.0,0.0,0.0,1.0,-0.12449529767036438,0.11810824275016783,-0.11447905004024507,1.2184696791468346e-07,0.0,0.0,0.0,1.2184696791468346e-07,0.0,0.0,0.0,1.2184696791468346e-07,1.30428445,0.9904716500000011,9.0417313,8.999999999999999e-08,0.0,0.0,0.0,8.999999999999999e-08,0.0,0.0,0.0,8.999999999999999e-08
1531946422.6968145,3275,1531946422,696443294,base_link,0.0030953686868289993,-0.03734013971095933,-0.20980588954292462,-0.9770248826781031,1.0,0.0,0.0,0.0,1.0,0.0,0.0,0.0,1.0,0.32489997148513794,0.01955384388566014,-0.24383693933486938,1.2184696791468346e-07,0.0,0.0,0.0,1.2184696791468346e-07,0.0,0.0,0.0,1.2184696791468346e-07,1.6082906000000001,0.5883990000000012,10.44408225,8.999999999999999e-08,0.0,0.0,0.0,8.999999999999999e-08,0.0,0.0,0.0,8.999999999999999e-08
1531946423.0878098,3276,1531946423,87225607,base_link,-0.12392566419012768,-0.05393885112674879,-0.15757289823786796,-0.9782146041820684,1.0,0.0,0.0,0.0,1.0,0.0,0.0,0.0,1.0,0.8569303750991821,-0.1225440800189972,-0.15602666139602658,1.2184696791468346e-07,0.0,0.0,0.0,1.2184696791468346e-07,0.0,0.0,0.0,1.2184696791468346e-07,0.59820565,-0.049033249999999036,7.9139665500000005,8.999999999999999e-08,0.0,0.0,0.0,8.999999999999999e-08,0.0,0.0,0.0,8.999999999999999e-08
1531946423.4230576,3277,1531946423,422732414,base_link,-0.22526262022862473,-0.03958359972247482,-0.1370841948622113,-0.9637934499049703,1.0,0.0,0.0,0.0,1.0,0.0,0.0,0.0,1.0,0.3745642900466919,-0.25700631737709045,-0.030980683863162963,1.2184696791468346e-07,0.0,0.0,0.0,1.2184696791468346e-07,0.0,0.0,0.0,1.2184696791468346e-07,1.5102241,0.5785923500000015,12.4348322,8.999999999999999e-08,0.0,0.0,0.0,8.999999999999999e-08,0.0,0.0,0.0,8.999999999999999e-08
1531946423.88356,3278,1531946423,880368656,base_link,-0.28238491575744734,-0.006114089852811195,-0.07157904553767142,-0.9566074521442153,1.0,0.0,0.0,0.0,1.0,0.0,0.0,0.0,1.0,0.23685038089752197,-0.2726211845874787,-0.4297153949737548,1.2184696791468346e-07,0.0,0.0,0.0,1.2184696791468346e-07,0.0,0.0,0.0,1.2184696791468346e-07,1.30428445,0.6766588500000017,13.6508568,8.999999999999999e-08,0.0,0.0,0.0,8.999999999999999e-08,0.0,0.0,0.0,8.999999999999999e-08
1531946424.4106176,3279,1531946424,410360829,base_link,-0.36106823317044034,0.04980820386200452,0.0514312992237817,-0.9297869085351607,1.0,0.0,0.0,0.0,1.0,0.0,0.0,0.0,1.0,0.16577503085136414,-0.4081952571868897,-0.29896959662437433,1.2184696791468346e-07,0.0,0.0,0.0,1.2184696791468346e-07,0.0,0.0,0.0,1.2184696791468346e-07,0.9022118,0.7060788000000017,13.9058297,8.999999999999999e-08,0.0,0.0,0.0,8.999999999999999e-08,0.0,0.0,0.0,8.999999999999999e-08
1531946424.723694,3280,1531946424,723445605,base_link,-0.38749810765871184,0.09121709078394245,0.12233195478751585,-0.9091532058721987,1.0,0.0,0.0,0.0,1.0,0.0,0.0,0.0,1.0,-0.005692430771887302,-0.4256907403469086,-0.32782322168350214,1.2184696791468346e-07,0.0,0.0,0.0,1.2184696791468346e-07,0.0,0.0,0.0,1.2184696791468346e-07,0.42168595,0.41187930000000167,13.405690550000001,8.999999999999999e-08,0.0,0.0,0.0,8.999999999999999e-08,0.0,0.0,0.0,8.999999999999999e-08
1531946425.1288447,3281,1531946425,125223215,base_link,-0.3797565864682854,0.13087049471693693,0.22715420287859367,-0.8871633540454036,1.0,0.0,0.0,0.0,1.0,0.0,0.0,0.0,1.0,-0.11466842144727707,-0.421290934085846,-0.46439710259437555,1.2184696791468346e-07,0.0,0.0,0.0,1.2184696791468346e-07,0.0,0.0,0.0,1.2184696791468346e-07,0.22555295,0.39226600000000145,11.67972015,8.999999999999999e-08,0.0,0.0,0.0,8.999999999999999e-08,0.0,0.0,0.0,8.999999999999999e-08
1531946425.5219212,3282,1531946425,521633895,base_link,-0.36056451620047436,0.1770353681208313,0.3402662980373258,-0.8502179453007406,1.0,0.0,0.0,0.0,1.0,0.0,0.0,0.0,1.0,-0.08147204667329788,-0.484546571969986,-0.37785074114799494,1.2184696791468346e-07,0.0,0.0,0.0,1.2184696791468346e-07,0.0,0.0,0.0,1.2184696791468346e-07,0.8825985000000001,0.29419950000000183,15.01398115,8.999999999999999e-08,0.0,0.0,0.0,8.999999999999999e-08,0.0,0.0,0.0,8.999999999999999e-08
1531946426.0184414,3283,1531946426,18228974,base_link,-0.2932470508680602,0.22795703426560016,0.4704500420144804,-0.8004489463136238,1.0,0.0,0.0,0.0,1.0,0.0,0.0,0.0,1.0,-0.19979843497276306,-0.46083801984786993,-0.4153228402137756,1.2184696791468346e-07,0.0,0.0,0.0,1.2184696791468346e-07,0.0,0.0,0.0,1.2184696791468346e-07,0.75511205,0.4314926000000017,13.945056300000001,8.999999999999999e-08,0.0,0.0,0.0,8.999999999999999e-08,0.0,0.0,0.0,8.999999999999999e-08
1531946426.4268787,3284,1531946426,425950685,base_link,-0.21310620699403648,0.23580513987316054,0.5606666561881253,-0.7646140079731997,1.0,0.0,0.0,0.0,1.0,0.0,0.0,0.0,1.0,-0.5583603382110596,-0.3585075438022614,-0.2852104306221008,1.2184696791468346e-07,0.0,0.0,0.0,1.2184696791468346e-07,0.0,0.0,0.0,1.2184696791468346e-07,0.6668522,0.10787315000000172,14.07254275,8.999999999999999e-08,0.0,0.0,0.0,8.999999999999999e-08,0.0,0.0,0.0,8.999999999999999e-08
1531946426.811892,3285,1531946426,811617227,base_link,-0.15700320127965678,0.24565784513111208,0.6174643010380338,-0.7305751534627292,1.0,0.0,0.0,0.0,1.0,0.0,0.0,0.0,1.0,-0.17626610398292542,-0.2629280984401703,-0.17751304805278775,1.2184696791468346e-07,0.0,0.0,0.0,1.2184696791468346e-07,0.0,0.0,0.0,1.2184696791468346e-07,0.4314926,1.4339560944232918e-15,11.7091401,8.999999999999999e-08,0.0,0.0,0.0,8.999999999999999e-08,0.0,0.0,0.0,8.999999999999999e-08
1531946427.211615,3286,1531946427,211272262,base_link,-0.0999885169423687,0.2352065486965979,0.6616721525390402,-0.7048901605812452,1.0,0.0,0.0,0.0,1.0,0.0,0.0,0.0,1.0,-0.2860906422138214,-0.0865886062383652,-0.18509773910045624,1.2184696791468346e-07,0.0,0.0,0.0,1.2184696791468346e-07,0.0,0.0,0.0,1.2184696791468346e-07,0.8237586,0.22555295000000136,10.97364135,8.999999999999999e-08,0.0,0.0,0.0,8.999999999999999e-08,0.0,0.0,0.0,8.999999999999999e-08
1531946427.5129879,3287,1531946427,512117790,base_link,0.06843302303569085,-0.20568318312910566,-0.693974760961954,0.6865933153504148,1.0,0.0,0.0,0.0,1.0,0.0,0.0,0.0,1.0,-0.4190042316913605,-0.03778342902660373,-0.2878310978412628,1.2184696791468346e-07,0.0,0.0,0.0,1.2184696791468346e-07,0.0,0.0,0.0,1.2184696791468346e-07,0.91201845,0.5982056500000013,10.2969825,8.999999999999999e-08,0.0,0.0,0.0,8.999999999999999e-08,0.0,0.0,0.0,8.999999999999999e-08
1531946427.9121006,3288,1531946427,910721639,base_link,0.04958464283756962,-0.17714786832615648,-0.7412207791542919,0.6455631282005454,1.0,0.0,0.0,0.0,1.0,0.0,0.0,0.0,1.0,0.1925210803747177,-0.03723872825503353,-0.2607618272304535,1.2184696791468346e-07,0.0,0.0,0.0,1.2184696791468346e-07,0.0,0.0,0.0,1.2184696791468346e-07,1.08853815,-0.019613299999998886,9.09076455,8.999999999999999e-08,0.0,0.0,0.0,8.999999999999999e-08,0.0,0.0,0.0,8.999999999999999e-08
1531946428.315844,3289,1531946428,314817373,base_link,0.07071190524217837,-0.2027671533709881,-0.7576319722953629,0.6163433316964546,1.0,0.0,0.0,0.0,1.0,0.0,0.0,0.0,1.0,0.20750559866428375,0.008823072537779784,-0.20360055565834045,1.2184696791468346e-07,0.0,0.0,0.0,1.2184696791468346e-07,0.0,0.0,0.0,1.2184696791468346e-07,0.7453054,0.755112050000001,7.7080269,8.999999999999999e-08,0.0,0.0,0.0,8.999999999999999e-08,0.0,0.0,0.0,8.999999999999999e-08
1531946428.6490536,3290,1531946428,648723516,base_link,0.08430392153955442,-0.21070408043023386,-0.7796836138477474,0.5836009780667082,1.0,0.0,0.0,0.0,1.0,0.0,0.0,0.0,1.0,-0.14576205611228943,-0.02424731850624088,-0.2791270315647125,1.2184696791468346e-07,0.0,0.0,0.0,1.2184696791468346e-07,0.0,0.0,0.0,1.2184696791468346e-07,1.2748645,0.813951950000001,8.09048625,8.999999999999999e-08,0.0,0.0,0.0,8.999999999999999e-08,0.0,0.0,0.0,8.999999999999999e-08
1531946429.1358433,3291,1531946429,134897106,base_link,0.10997296933056579,-0.2245118738780703,-0.8323462055675314,0.49467176853112255,1.0,0.0,0.0,0.0,1.0,0.0,0.0,0.0,1.0,0.013689825311303139,-0.1444708108901978,-0.4196002781391144,1.2184696791468346e-07,0.0,0.0,0.0,1.2184696791468346e-07,0.0,0.0,0.0,1.2184696791468346e-07,1.59848395,0.48052585000000103,8.5317855,8.999999999999999e-08,0.0,0.0,0.0,8.999999999999999e-08,0.0,0.0,0.0,8.999999999999999e-08
1531946429.5420005,3292,1531946429,541651574,base_link,0.10225076939291387,-0.2620343011571471,-0.8584582048948377,0.42887330952668923,1.0,0.0,0.0,0.0,1.0,0.0,0.0,0.0,1.0,0.3371044993400574,-0.2786089479923249,-0.26820635795593256,1.2184696791468346e-07,0.0,0.0,0.0,1.2184696791468346e-07,0.0,0.0,0.0,1.2184696791468346e-07,1.93191005,0.5001391500000013,10.7480884,8.999999999999999e-08,0.0,0.0,0.0,8.999999999999999e-08,0.0,0.0,0.0,8.999999999999999e-08
1531946430.041338,3293,1531946430,40934072,base_link,0.04795963032933147,-0.32156604979807707,-0.8751787114200966,0.35826997160380825,1.0,0.0,0.0,0.0,1.0,0.0,0.0,0.0,1.0,-0.15705178678035736,-0.3057294487953186,-0.14023189246654508,1.2184696791468346e-07,0.0,0.0,0.0,1.2184696791468346e-07,0.0,0.0,0.0,1.2184696791468346e-07,2.5105024,0.9218251000000017,13.17033095,8.999999999999999e-08,0.0,0.0,0.0,8.999999999999999e-08,0.0,0.0,0.0,8.999999999999999e-08
1531946430.397028,3294,1531946430,396781794,base_link,0.018059744668744042,-0.30506696835563835,-0.9036623710857772,0.3000038491826914,1.0,0.0,0.0,0.0,1.0,0.0,0.0,0.0,1.0,-0.029620351269841194,-0.11333268135786062,-0.40278923511505127,1.2184696791468346e-07,0.0,0.0,0.0,1.2184696791468346e-07,0.0,0.0,0.0,1.2184696791468346e-07,1.7063571,1.2062179500000012,10.179302700000001,8.999999999999999e-08,0.0,0.0,0.0,8.999999999999999e-08,0.0,0.0,0.0,8.999999999999999e-08
1531946430.8194115,3295,1531946430,804998716,base_link,0.010829832091285041,-0.3138470048492778,-0.9292604684919552,0.19457069147773504,1.0,0.0,0.0,0.0,1.0,0.0,0.0,0.0,1.0,-0.0708632618188858,-0.2993800640106202,-0.33486530184745783,1.2184696791468346e-07,0.0,0.0,0.0,1.2184696791468346e-07,0.0,0.0,0.0,1.2184696791468346e-07,1.9809433,0.6178189500000014,11.2972608,8.999999999999999e-08,0.0,0.0,0.0,8.999999999999999e-08,0.0,0.0,0.0,8.999999999999999e-08
1531946431.1750505,3296,1531946431,174704277,base_link,-0.03619336830802106,-0.31099472478014495,-0.9419591065498298,0.12118317885452622,1.0,0.0,0.0,0.0,1.0,0.0,0.0,0.0,1.0,-0.2609614431858063,-0.39280104637146,-0.2779289782047271,1.2184696791468346e-07,0.0,0.0,0.0,1.2184696791468346e-07,0.0,0.0,0.0,1.2184696791468346e-07,2.8243152,0.36284605000000175,14.50403535,8.999999999999999e-08,0.0,0.0,0.0,8.999999999999999e-08,0.0,0.0,0.0,8.999999999999999e-08
1531946431.701722,3297,1531946431,701101208,base_link,-0.1072830792622459,-0.285193240615636,-0.9519333385597459,0.03127419622721998,1.0,0.0,0.0,0.0,1.0,0.0,0.0,0.0,1.0,-0.22641977667808533,-0.3368483185768128,-0.27746021747589106,1.2184696791468346e-07,0.0,0.0,0.0,1.2184696791468346e-07,0.0,0.0,0.0,1.2184696791468346e-07,2.53992235,0.9316317500000016,14.0823494,8.999999999999999e-08,0.0,0.0,0.0,8.999999999999999e-08,0.0,0.0,0.0,8.999999999999999e-08
1531946432.1217337,3298,1531946432,120700875,base_link,-0.13729147966452396,-0.25434199618528036,-0.9559403186007539,-0.051374175044484674,1.0,0.0,0.0,0.0,1.0,0.0,0.0,0.0,1.0,-0.25514981150627136,-0.16110208630561834,-0.3425996005535126,1.2184696791468346e-07,0.0,0.0,0.0,1.2184696791468346e-07,0.0,0.0,0.0,1.2184696791468346e-07,2.18688295,1.3140911000000017,14.17060925,8.999999999999999e-08,0.0,0.0,0.0,8.999999999999999e-08,0.0,0.0,0.0,8.999999999999999e-08
1531946432.4454947,3299,1531946432,445077856,base_link,-0.13677280855556376,-0.220461602810408,-0.9569152615754332,-0.13039579245554472,1.0,0.0,0.0,0.0,1.0,0.0,0.0,0.0,1.0,-0.2472950518131256,-0.12406435608863836,-0.40761229395866394,1.2184696791468346e-07,0.0,0.0,0.0,1.2184696791468346e-07,0.0,0.0,0.0,1.2184696791468346e-07,1.16699135,0.2941995000000012,10.07142955,8.999999999999999e-08,0.0,0.0,0.0,8.999999999999999e-08,0.0,0.0,0.0,8.999999999999999e-08
1531946432.926794,3300,1531946432,926416448,base_link,-0.15093731406410027,-0.15111415158163258,-0.9549549800215866,-0.20601802481057202,1.0,0.0,0.0,0.0,1.0,0.0,0.0,0.0,1.0,-0.4247184693813324,-0.15141557157039645,-0.12577070295810697,1.2184696791468346e-07,0.0,0.0,0.0,1.2184696791468346e-07,0.0,0.0,0.0,1.2184696791468346e-07,1.5102241,0.2843928500000013,10.83634825,8.999999999999999e-08,0.0,0.0,0.0,8.999999999999999e-08,0.0,0.0,0.0,8.999999999999999e-08
1531946433.300244,3301,1531946433,299680658,base_link,-0.15849471238670843,-0.10922624084361227,-0.9533799727941323,-0.2324127404676588,1.0,0.0,0.0,0.0,1.0,0.0,0.0,0.0,1.0,-0.1830892711877823,-0.05468003824353218,-0.021479398012161248,1.2184696791468346e-07,0.0,0.0,0.0,1.2184696791468346e-07,0.0,0.0,0.0,1.2184696791468346e-07,1.57887065,0.18632635000000136,11.0226746,8.999999999999999e-08,0.0,0.0,0.0,8.999999999999999e-08,0.0,0.0,0.0,8.999999999999999e-08
1531946433.7056177,3302,1531946433,705305117,base_link,-0.14736619921605254,-0.07413381970294733,-0.9571711968297343,-0.23792998983818692,1.0,0.0,0.0,0.0,1.0,0.0,0.0,0.0,1.0,-0.1906486600637436,0.07795315980911255,-0.027409523725509654,1.2184696791468346e-07,0.0,0.0,0.0,1.2184696791468346e-07,0.0,0.0,0.0,1.2184696791468346e-07,1.55925735,0.7453054000000011,9.1986377,8.999999999999999e-08,0.0,0.0,0.0,8.999999999999999e-08,0.0,0.0,0.0,8.999999999999999e-08
1531946434.0916336,3303,1531946434,91258420,base_link,-0.11597884194653932,-0.076414397935186,-0.9554865407372878,-0.2602983259239942,1.0,0.0,0.0,0.0,1.0,0.0,0.0,0.0,1.0,0.013914810493588448,0.16183255612850186,-0.17984102666378024,1.2184696791468346e-07,0.0,0.0,0.0,1.2184696791468346e-07,0.0,0.0,0.0,1.2184696791468346e-07,1.5298374,0.657045550000001,7.5511205,8.999999999999999e-08,0.0,0.0,0.0,8.999999999999999e-08,0.0,0.0,0.0,8.999999999999999e-08
1531946434.552929,3304,1531946434,552445306,base_link,-0.08363108010430992,-0.12688149530201806,-0.9403366090968277,-0.30442403023215847,1.0,0.0,0.0,0.0,1.0,0.0,0.0,0.0,1.0,0.11257558315992355,0.09677531570196149,-0.20224305987358093,1.2184696791468346e-07,0.0,0.0,0.0,1.2184696791468346e-07,0.0,0.0,0.0,1.2184696791468346e-07,1.2944778000000001,0.2353596000000008,6.63910205,8.999999999999999e-08,0.0,0.0,0.0,8.999999999999999e-08,0.0,0.0,0.0,8.999999999999999e-08
1531946435.103827,3305,1531946435,102048064,base_link,-0.08254426643518284,-0.16484417252065547,-0.9238353758149811,-0.3354713717404967,1.0,0.0,0.0,0.0,1.0,0.0,0.0,0.0,1.0,0.11232490837574005,-0.005115297622978699,-0.09992464631795883,1.2184696791468346e-07,0.0,0.0,0.0,1.2184696791468346e-07,0.0,0.0,0.0,1.2184696791468346e-07,1.372931,0.5785923500000011,8.97308475,8.999999999999999e-08,0.0,0.0,0.0,8.999999999999999e-08,0.0,0.0,0.0,8.999999999999999e-08
1531946435.5455863,3306,1531946435,545031242,base_link,-0.08737124760028808,-0.16976707305032812,-0.913096164453702,-0.36027878158536014,1.0,0.0,0.0,0.0,1.0,0.0,0.0,0.0,1.0,0.008714139461517334,-0.060086458921432516,-0.17560674250125885,1.2184696791468346e-07,0.0,0.0,0.0,1.2184696791468346e-07,0.0,0.0,0.0,1.2184696791468346e-07,1.46119085,0.6766588500000013,9.91452315,8.999999999999999e-08,0.0,0.0,0.0,8.999999999999999e-08,0.0,0.0,0.0,8.999999999999999e-08
1531946435.8225396,3307,1531946435,821952555,base_link,-0.1021920919426779,-0.18728025275505353,-0.8943105633707871,-0.3933084025492054,1.0,0.0,0.0,0.0,1.0,0.0,0.0,0.0,1.0,0.28262853622436523,-0.12987132370471957,-0.26574838161468506,1.2184696791468346e-07,0.0,0.0,0.0,1.2184696791468346e-07,0.0,0.0,0.0,1.2184696791468346e-07,1.5298374,0.6080123000000014,11.26784085,8.999999999999999e-08,0.0,0.0,0.0,8.999999999999999e-08,0.0,0.0,0.0,8.999999999999999e-08
1531946436.2061782,3308,1531946436,205694311,base_link,-0.13011810245401448,-0.2073729379837844,-0.8627507355521649,-0.44241034380983735,1.0,0.0,0.0,0.0,1.0,0.0,0.0,0.0,1.0,-0.1513642519712448,-0.11729145050048832,-0.3543378412723541,1.2184696791468346e-07,0.0,0.0,0.0,1.2184696791468346e-07,0.0,0.0,0.0,1.2184696791468346e-07,1.3925443,1.0493115500000014,11.07170785,8.999999999999999e-08,0.0,0.0,0.0,8.999999999999999e-08,0.0,0.0,0.0,8.999999999999999e-08
1531946436.5221496,3309,1531946436,521646368,base_link,-0.12955147012401222,-0.19612201128907703,-0.8325523971015125,-0.5016064985196657,1.0,0.0,0.0,0.0,1.0,0.0,0.0,0.0,1.0,0.18451184034347534,-0.22814819216728216,-0.3983104825019836,1.2184696791468346e-07,0.0,0.0,0.0,1.2184696791468346e-07,0.0,0.0,0.0,1.2184696791468346e-07,0.784532,0.09806650000000132,10.77750835,8.999999999999999e-08,0.0,0.0,0.0,8.999999999999999e-08,0.0,0.0,0.0,8.999999999999999e-08
1531946436.777438,3310,1531946436,776958419,base_link,-0.1518298805755801,-0.1928235666098172,-0.8066725758335813,-0.5376300911614689,1.0,0.0,0.0,0.0,1.0,0.0,0.0,0.0,1.0,-0.05021512508392334,-0.24506188929080966,-0.21409085392951963,1.2184696791468346e-07,0.0,0.0,0.0,1.2184696791468346e-07,0.0,0.0,0.0,1.2184696791468346e-07,0.8237586,0.19613300000000142,11.7875933,8.999999999999999e-08,0.0,0.0,0.0,8.999999999999999e-08,0.0,0.0,0.0,8.999999999999999e-08
1531946437.171246,3311,1531946437,168037161,base_link,-0.16978303110544157,-0.1612025889364785,-0.7784250645771842,-0.5824447325771194,1.0,0.0,0.0,0.0,1.0,0.0,0.0,0.0,1.0,-0.19235505163669586,-0.20147430896759036,-0.27090710401535034,1.2184696791468346e-07,0.0,0.0,0.0,1.2184696791468346e-07,0.0,0.0,0.0,1.2184696791468346e-07,0.6668522,0.7943386500000016,12.24850585,8.999999999999999e-08,0.0,0.0,0.0,8.999999999999999e-08,0.0,0.0,0.0,8.999999999999999e-08
1531946437.5705295,3312,1531946437,563353338,base_link,-0.16710977699157598,-0.13152211114117007,-0.7340134786746979,-0.6449809840907438,1.0,0.0,0.0,0.0,1.0,0.0,0.0,0.0,1.0,-0.18554584681987762,-0.0860143825411797,-0.33599525690078735,1.2184696791468346e-07,0.0,0.0,0.0,1.2184696791468346e-07,0.0,0.0,0.0,1.2184696791468346e-07,0.00980665,0.42168595000000103,8.56120545,8.999999999999999e-08,0.0,0.0,0.0,8.999999999999999e-08,0.0,0.0,0.0,8.999999999999999e-08
1531946437.9842863,3313,1531946437,981947119,base_link,-0.14731852166165932,-0.0973834052875859,-0.6838281876711078,-0.7079496700306209,1.0,0.0,0.0,0.0,1.0,0.0,0.0,0.0,1.0,-0.11532706767320633,-0.11678951233625416,-0.34449586272239685,1.2184696791468346e-07,0.0,0.0,0.0,1.2184696791468346e-07,0.0,0.0,0.0,1.2184696791468346e-07,0.2353596,0.049033250000001236,10.13026945,8.999999999999999e-08,0.0,0.0,0.0,8.999999999999999e-08,0.0,0.0,0.0,8.999999999999999e-08
1531946438.3672402,3314,1531946438,365355598,base_link,-0.15907048174689714,-0.08424540807341993,-0.6427428980681958,-0.7446347158427744,1.0,0.0,0.0,0.0,1.0,0.0,0.0,0.0,1.0,-0.13684193789958954,-0.11159036308526996,-0.19000962376594543,1.2184696791468346e-07,0.0,0.0,0.0,1.2184696791468346e-07,0.0,0.0,0.0,1.2184696791468346e-07,0.4314926,0.5001391500000013,10.91480145,8.999999999999999e-08,0.0,0.0,0.0,8.999999999999999e-08,0.0,0.0,0.0,8.999999999999999e-08
1531946438.7465842,3315,1531946438,746253509,base_link,-0.14285903465153937,-0.05774311931759068,-0.6150121802516793,-0.7733156189629048,1.0,0.0,0.0,0.0,1.0,0.0,0.0,0.0,1.0,-0.06293177604675293,-0.08332630991935731,-0.11764672398567198,1.2184696791468346e-07,0.0,0.0,0.0,1.2184696791468346e-07,0.0,0.0,0.0,1.2184696791468346e-07,0.16671305,0.2157463000000012,9.6693569,8.999999999999999e-08,0.0,0.0,0.0,8.999999999999999e-08,0.0,0.0,0.0,8.999999999999999e-08
1531946439.129383,3316,1531946439,129031801,base_link,-0.13003015660592127,-0.033309539716598065,-0.6084699736797863,-0.7821425215822423,1.0,0.0,0.0,0.0,1.0,0.0,0.0,0.0,1.0,-0.2368144690990448,-0.03883399814367294,-0.019481752067804333,1.2184696791468346e-07,0.0,0.0,0.0,1.2184696791468346e-07,0.0,0.0,0.0,1.2184696791468346e-07,0.392266,0.17651970000000114,9.30651085,8.999999999999999e-08,0.0,0.0,0.0,8.999999999999999e-08,0.0,0.0,0.0,8.999999999999999e-08
1531946439.5139678,3317,1531946439,513684614,base_link,-0.10333896579905182,-0.019205060500151267,-0.5974515571606942,-0.7949867046970217,1.0,0.0,0.0,0.0,1.0,0.0,0.0,0.0,1.0,-0.13696570694446564,0.05295567214488982,-0.1132926270365715,1.2184696791468346e-07,0.0,0.0,0.0,1.2184696791468346e-07,0.0,0.0,0.0,1.2184696791468346e-07,0.5491724,0.1961330000000011,9.09076455,8.999999999999999e-08,0.0,0.0,0.0,8.999999999999999e-08,0.0,0.0,0.0,8.999999999999999e-08
1531946440.0154886,3318,1531946440,15195529,base_link,-0.09165291306823024,-0.025851324230169136,-0.5755830056906517,-0.8121795713521546,1.0,0.0,0.0,0.0,1.0,0.0,0.0,0.0,1.0,-0.09639709442853928,0.027902022004127492,-0.0826961025595665,1.2184696791468346e-07,0.0,0.0,0.0,1.2184696791468346e-07,0.0,0.0,0.0,1.2184696791468346e-07,0.57859235,0.37265270000000106,8.3160392,8.999999999999999e-08,0.0,0.0,0.0,8.999999999999999e-08,0.0,0.0,0.0,8.999999999999999e-08
1531946440.4812338,3319,1531946440,481025803,base_link,-0.08594599074424061,-0.030839664038825727,-0.5617398611125909,-0.8222594056830062,1.0,0.0,0.0,0.0,1.0,0.0,0.0,0.0,1.0,0.037849538028240204,0.05015945062041282,-0.08122794330120087,1.2184696791468346e-07,0.0,0.0,0.0,1.2184696791468346e-07,0.0,0.0,0.0,1.2184696791468346e-07,0.7649187,0.5099458000000012,10.1008495,8.999999999999999e-08,0.0,0.0,0.0,8.999999999999999e-08,0.0,0.0,0.0,8.999999999999999e-08
1531946440.7709773,3320,1531946440,768315940,base_link,-0.10296337988847834,-0.055767894631882704,-0.543100034118879,-0.8314630702985792,1.0,0.0,0.0,0.0,1.0,0.0,0.0,0.0,1.0,0.25487086176872253,0.04709645733237264,-0.20594890415668488,1.2184696791468346e-07,0.0,0.0,0.0,1.2184696791468346e-07,0.0,0.0,0.0,1.2184696791468346e-07,0.38245935,0.13729310000000097,7.83551335,8.999999999999999e-08,0.0,0.0,0.0,8.999999999999999e-08,0.0,0.0,0.0,8.999999999999999e-08
1531946441.182693,3321,1531946441,182372657,base_link,-0.12212664684601243,-0.0739829057816684,-0.5121976522057827,-0.8469150942432978,1.0,0.0,0.0,0.0,1.0,0.0,0.0,0.0,1.0,0.1689022034406662,-0.0036452217027545196,-0.17976926267147064,1.2184696791468346e-07,0.0,0.0,0.0,1.2184696791468346e-07,0.0,0.0,0.0,1.2184696791468346e-07,0.6276256,0.12748645000000108,8.85540495,8.999999999999999e-08,0.0,0.0,0.0,8.999999999999999e-08,0.0,0.0,0.0,8.999999999999999e-08
1531946441.622932,3322,1531946441,622662012,base_link,-0.1301900818614145,-0.07766276777624112,-0.47995569339790833,-0.8640958103481261,1.0,0.0,0.0,0.0,1.0,0.0,0.0,0.0,1.0,-0.055841438472270966,-0.07525195181369783,-0.14302872121334076,1.2184696791468346e-07,0.0,0.0,0.0,1.2184696791468346e-07,0.0,0.0,0.0,1.2184696791468346e-07,0.8041453000000001,0.6276256000000012,9.71839015,8.999999999999999e-08,0.0,0.0,0.0,8.999999999999999e-08,0.0,0.0,0.0,8.999999999999999e-08
1531946442.0627918,3323,1531946442,62546439,base_link,-0.14378274859741208,-0.07533762831329355,-0.4398522156727202,-0.8832784336400953,1.0,0.0,0.0,0.0,1.0,0.0,0.0,0.0,1.0,0.11352283507585526,-0.08282323181629184,-0.20316950976848602,1.2184696791468346e-07,0.0,0.0,0.0,1.2184696791468346e-07,0.0,0.0,0.0,1.2184696791468346e-07,0.9218251,0.5785923500000012,9.4928372,8.999999999999999e-08,0.0,0.0,0.0,8.999999999999999e-08,0.0,0.0,0.0,8.999999999999999e-08
1531946442.4386358,3324,1531946442,438357009,base_link,-0.1530438093840691,-0.06636179844858336,-0.3984390041795238,-0.9018980341836386,1.0,0.0,0.0,0.0,1.0,0.0,0.0,0.0,1.0,-0.07517872750759125,-0.09930687397718434,-0.2994517385959625,1.2184696791468346e-07,0.0,0.0,0.0,1.2184696791468346e-07,0.0,0.0,0.0,1.2184696791468346e-07,1.36312435,0.9120184500000014,11.5914603,8.999999999999999e-08,0.0,0.0,0.0,8.999999999999999e-08,0.0,0.0,0.0,8.999999999999999e-08
1531946442.8267221,3325,1531946442,825671116,base_link,-0.17734881280611978,-0.05998661850559744,-0.339239627470936,-0.9218814887771118,1.0,0.0,0.0,0.0,1.0,0.0,0.0,0.0,1.0,0.07347622513771057,-0.1628099083900452,-0.2654622495174408,1.2184696791468346e-07,0.0,0.0,0.0,1.2184696791468346e-07,0.0,0.0,0.0,1.2184696791468346e-07,1.3533177,0.6570455500000015,12.36618565,8.999999999999999e-08,0.0,0.0,0.0,8.999999999999999e-08,0.0,0.0,0.0,8.999999999999999e-08
