Time,header.seq,header.stamp.secs,header.stamp.nsecs,header.frame_id,orientation.x,orientation.y,orientation.z,orientation.w,orientation_covariance_0,orientation_covariance_1,orientation_covariance_2,orientation_covariance_3,orientation_covariance_4,orientation_covariance_5,orientation_covariance_6,orientation_covariance_7,orientation_covariance_8,angular_velocity.x,angular_velocity.y,angular_velocity.z,angular_velocity_covariance_0,angular_velocity_covariance_1,angular_velocity_covariance_2,angular_velocity_covariance_3,angular_velocity_covariance_4,angular_velocity_covariance_5,angular_velocity_covariance_6,angular_velocity_covariance_7,angular_velocity_covariance_8,linear_acceleration.x,linear_acceleration.y,linear_acceleration.z,linear_acceleration_covariance_0,linear_acceleration_covariance_1,linear_acceleration_covariance_2,linear_acceleration_covariance_3,linear_acceleration_covariance_4,linear_acceleration_covariance_5,linear_acceleration_covariance_6,linear_acceleration_covariance_7,linear_acceleration_covariance_8
1536689966.8750944,3764,1536689966,874829652,base_link,0.0016054089864155257,-0.11982557570095818,-0.9911558275417707,-0.05700332972649847,1.0,0.0,0.0,0.0,1.0,0.0,0.0,0.0,1.0,0.9173280000686646,-0.03411664441227913,-0.01571107096970081,1.2184696791468346e-07,0.0,0.0,0.0,1.2184696791468346e-07,0.0,0.0,0.0,1.2184696791468346e-07,-0.588399,0.2941995000000012,10.0812362,8.999999999999999e-08,0.0,0.0,0.0,8.999999999999999e-08,0.0,0.0,0.0,8.999999999999999e-08
1536689967.1811523,3765,1536689967,180918088,base_link,-0.0043991834828860064,-0.24296369451531785,-0.9679874710577747,-0.06284541516550714,1.0,0.0,0.0,0.0,1.0,0.0,0.0,0.0,1.0,0.8867995142936707,-0.020115729421377192,-0.09259320795536041,1.2184696791468346e-07,0.0,0.0,0.0,1.2184696791468346e-07,0.0,0.0,0.0,1.2184696791468346e-07,-0.51975245,0.6276256000000012,9.9831697,8.999999999999999e-08,0.0,0.0,0.0,8.999999999999999e-08,0.0,0.0,0.0,8.999999999999999e-08
1536689967.543568,3766,1536689967,543299107,base_link,-0.010779205816633382,-0.3161730300028106,-0.9440510530066133,-0.09319889021822576,1.0,0.0,0.0,0.0,1.0,0.0,0.0,0.0,1.0,0.15046590566635132,-0.007398838642984653,-0.19846485555171967,1.2184696791468346e-07,0.0,0.0,0.0,1.2184696791468346e-07,0.0,0.0,0.0,1.2184696791468346e-07,-0.2941995,0.598205650000001,8.6102387,8.999999999999999e-08,0.0,0.0,0.0,8.999999999999999e-08,0.0,0.0,0.0,8.999999999999999e-08
1536689967.8082392,3767,1536689967,807422594,base_link,-0.0038140053779623603,-0.3412983977688075,-0.931473751745587,-0.1259265931105183,1.0,0.0,0.0,0.0,1.0,0.0,0.0,0.0,1.0,0.24677890539169312,-0.10877319425344471,-0.29687392711639404,1.2184696791468346e-07,0.0,0.0,0.0,1.2184696791468346e-07,0.0,0.0,0.0,1.2184696791468346e-07,-0.14709975,0.637432250000001,7.71783355,8.999999999999999e-08,0.0,0.0,0.0,8.999999999999999e-08,0.0,0.0,0.0,8.999999999999999e-08
1536689968.2066824,3768,1536689968,206450999,base_link,-0.004501585666995706,-0.3734081003250899,-0.9079024805852063,-0.1904185182310777,1.0,0.0,0.0,0.0,1.0,0.0,0.0,0.0,1.0,0.2145177125930786,-0.15331515669822696,-0.3037481904029846,1.2184696791468346e-07,0.0,0.0,0.0,1.2184696791468346e-07,0.0,0.0,0.0,1.2184696791468346e-07,-0.0196133,0.45110590000000106,8.7867584,8.999999999999999e-08,0.0,0.0,0.0,8.999999999999999e-08,0.0,0.0,0.0,8.999999999999999e-08
1536689968.575763,3769,1536689968,575488092,base_link,-0.041268644649871365,-0.3827559474524597,-0.8852909556818991,-0.2608729718586469,1.0,0.0,0.0,0.0,1.0,0.0,0.0,0.0,1.0,0.021912604570388794,-0.3604396581649781,-0.24720706045627588,1.2184696791468346e-07,0.0,0.0,0.0,1.2184696791468346e-07,0.0,0.0,0.0,1.2184696791468346e-07,0.3334261,0.4609125500000016,13.13110435,8.999999999999999e-08,0.0,0.0,0.0,8.999999999999999e-08,0.0,0.0,0.0,8.999999999999999e-08
1536689968.8890336,3770,1536689968,888392054,base_link,-0.08055821444294226,-0.37679865981949967,-0.8659157197134977,-0.3189406063784431,1.0,0.0,0.0,0.0,1.0,0.0,0.0,0.0,1.0,0.13373692333698273,-0.2710797488689423,-0.2318647652864456,1.2184696791468346e-07,0.0,0.0,0.0,1.2184696791468346e-07,0.0,0.0,0.0,1.2184696791468346e-07,0.5295591,1.010084950000002,15.6318001,8.999999999999999e-08,0.0,0.0,0.0,8.999999999999999e-08,0.0,0.0,0.0,8.999999999999999e-08
1536689969.199315,3771,1536689969,199077121,base_link,-0.10702360431391734,-0.3688640644721486,-0.8434021698651093,-0.3757100343716815,1.0,0.0,0.0,0.0,1.0,0.0,0.0,0.0,1.0,0.0440652072429657,-0.36740264296531683,-0.3428738415241241,1.2184696791468346e-07,0.0,0.0,0.0,1.2184696791468346e-07,0.0,0.0,0.0,1.2184696791468346e-07,0.77472535,1.1866046500000016,14.1411893,8.999999999999999e-08,0.0,0.0,0.0,8.999999999999999e-08,0.0,0.0,0.0,8.999999999999999e-08
1536689969.599924,3772,1536689969,599650973,base_link,-0.15547395087429575,-0.35825377173575174,-0.7966919783413211,-0.4612634575632856,1.0,0.0,0.0,0.0,1.0,0.0,0.0,0.0,1.0,0.001261310651898384,-0.3839812278747559,-0.32629197835922236,1.2184696791468346e-07,0.0,0.0,0.0,1.2184696791468346e-07,0.0,0.0,0.0,1.2184696791468346e-07,1.18660465,1.0787315000000017,14.9257213,8.999999999999999e-08,0.0,0.0,0.0,8.999999999999999e-08,0.0,0.0,0.0,8.999999999999999e-08
1536689970.0125294,3773,1536689970,12324316,base_link,-0.20791453390143386,-0.3370773320954485,-0.7444914952850041,-0.5374782155848393,1.0,0.0,0.0,0.0,1.0,0.0,0.0,0.0,1.0,0.07240618765354156,-0.37516257166862493,-0.23888126015663141,1.2184696791468346e-07,0.0,0.0,0.0,1.2184696791468346e-07,0.0,0.0,0.0,1.2184696791468346e-07,1.32389775,0.5883990000000021,17.5931301,8.999999999999999e-08,0.0,0.0,0.0,8.999999999999999e-08,0.0,0.0,0.0,8.999999999999999e-08
1536689970.4008822,3774,1536689970,400286856,base_link,-0.2743481851005766,-0.29324555137005814,-0.6850731677228215,-0.6077950927737975,1.0,0.0,0.0,0.0,1.0,0.0,0.0,0.0,1.0,0.09753376990556717,-0.37342905998229986,-0.2519917488098144,1.2184696791468346e-07,0.0,0.0,0.0,1.2184696791468346e-07,0.0,0.0,0.0,1.2184696791468346e-07,1.5886773,0.9414384000000026,20.7312581,8.999999999999999e-08,0.0,0.0,0.0,8.999999999999999e-08,0.0,0.0,0.0,8.999999999999999e-08
1536689970.8502507,3775,1536689970,850040625,base_link,-0.30673233760410695,-0.23247657764189847,-0.6269664084035677,-0.6773352468677243,1.0,0.0,0.0,0.0,1.0,0.0,0.0,0.0,1.0,-0.16453027725219727,-0.3868307173252106,-0.2559818029403686,1.2184696791468346e-07,0.0,0.0,0.0,1.2184696791468346e-07,0.0,0.0,0.0,1.2184696791468346e-07,0.79433865,1.274864500000002,16.5732385,8.999999999999999e-08,0.0,0.0,0.0,8.999999999999999e-08,0.0,0.0,0.0,8.999999999999999e-08
1536689971.2587264,3776,1536689971,258443884,base_link,-0.311526934936035,-0.19279694725007954,-0.5642596061184234,-0.7398590425503302,1.0,0.0,0.0,0.0,1.0,0.0,0.0,0.0,1.0,-0.13134793937206268,-0.23565794527530676,-0.375682383775711,1.2184696791468346e-07,0.0,0.0,0.0,1.2184696791468346e-07,0.0,0.0,0.0,1.2184696791468346e-07,0.2353596,0.902211800000002,15.40624715,8.999999999999999e-08,0.0,0.0,0.0,8.999999999999999e-08,0.0,0.0,0.0,8.999999999999999e-08
1536689971.7076926,3777,1536689971,707207193,base_link,-0.348218835989579,-0.17859204519293595,-0.4775324213262008,-0.7866456065079133,1.0,0.0,0.0,0.0,1.0,0.0,0.0,0.0,1.0,0.06148848682641983,-0.3423047065734864,-0.27222666144371027,1.2184696791468346e-07,0.0,0.0,0.0,1.2184696791468346e-07,0.0,0.0,0.0,1.2184696791468346e-07,-0.10787315,0.5295591000000015,12.778064950000001,8.999999999999999e-08,0.0,0.0,0.0,8.999999999999999e-08,0.0,0.0,0.0,8.999999999999999e-08
1536689972.1012855,3778,1536689972,101008719,base_link,-0.35863448737110765,-0.17401277151382835,-0.423877891172704,-0.8132824805644838,1.0,0.0,0.0,0.0,1.0,0.0,0.0,0.0,1.0,0.057917580008506775,-0.230260506272316,-0.336175262928009,1.2184696791468346e-07,0.0,0.0,0.0,1.2184696791468346e-07,0.0,0.0,0.0,1.2184696791468346e-07,-0.2353596,1.010084950000001,8.93385815,8.999999999999999e-08,0.0,0.0,0.0,8.999999999999999e-08,0.0,0.0,0.0,8.999999999999999e-08
1536689972.4447987,3779,1536689972,444236843,base_link,-0.36529757167049537,-0.1506577774480182,-0.3542397468093881,-0.8475695369740958,1.0,0.0,0.0,0.0,1.0,0.0,0.0,0.0,1.0,-0.048715345561504364,-0.2681159377098084,-0.3280167877674102,1.2184696791468346e-07,0.0,0.0,0.0,1.2184696791468346e-07,0.0,0.0,0.0,1.2184696791468346e-07,-0.48052585000000003,0.37265270000000156,12.513285400000001,8.999999999999999e-08,0.0,0.0,0.0,8.999999999999999e-08,0.0,0.0,0.0,8.999999999999999e-08
1536689972.7609806,3780,1536689972,760030074,base_link,-0.3706059209143916,-0.1360483127277029,-0.3067745446293179,-0.8660435824798979,1.0,0.0,0.0,0.0,1.0,0.0,0.0,0.0,1.0,-0.07540975511074066,-0.28717288374900823,-0.24761533737182614,1.2184696791468346e-07,0.0,0.0,0.0,1.2184696791468346e-07,0.0,0.0,0.0,1.2184696791468346e-07,-0.4707192,0.8629852000000016,12.83690485,8.999999999999999e-08,0.0,0.0,0.0,8.999999999999999e-08,0.0,0.0,0.0,8.999999999999999e-08
1536689973.1748831,3781,1536689973,174596851,base_link,-0.38329035096232106,-0.12254587158247103,-0.23172093062625804,-0.8856502845519636,1.0,0.0,0.0,0.0,1.0,0.0,0.0,0.0,1.0,-0.006105726584792137,-0.3067492544651032,-0.3678410053253173,1.2184696791468346e-07,0.0,0.0,0.0,1.2184696791468346e-07,0.0,0.0,0.0,1.2184696791468346e-07,-0.89240515,1.0885381500000013,10.2577559,8.999999999999999e-08,0.0,0.0,0.0,8.999999999999999e-08,0.0,0.0,0.0,8.999999999999999e-08
1536689973.5085788,3782,1536689973,508215441,base_link,-0.3861195673273427,-0.1142963113055868,-0.15768584535495045,-0.901655814112889,1.0,0.0,0.0,0.0,1.0,0.0,0.0,0.0,1.0,0.1385437548160553,-0.20901361107826238,-0.4079301655292511,1.2184696791468346e-07,0.0,0.0,0.0,1.2184696791468346e-07,0.0,0.0,0.0,1.2184696791468346e-07,-0.87279185,0.6472389000000014,10.87557485,8.999999999999999e-08,0.0,0.0,0.0,8.999999999999999e-08,0.0,0.0,0.0,8.999999999999999e-08
1536689973.9791563,3783,1536689973,977810303,base_link,-0.39613684695046786,-0.10684475330386775,-0.058417501654156996,-0.9100808715054194,1.0,0.0,0.0,0.0,1.0,0.0,0.0,0.0,1.0,0.06844139099121094,-0.2559430897235871,-0.30439978837966913,1.2184696791468346e-07,0.0,0.0,0.0,1.2184696791468346e-07,0.0,0.0,0.0,1.2184696791468346e-07,-0.7649187,0.30400615000000136,11.1991943,8.999999999999999e-08,0.0,0.0,0.0,8.999999999999999e-08,0.0,0.0,0.0,8.999999999999999e-08
1536689974.4130008,3784,1536689974,412756201,base_link,-0.39182189516626426,-0.06869211199779338,0.025660676851165073,-0.9171142381847202,1.0,0.0,0.0,0.0,1.0,0.0,0.0,0.0,1.0,-0.09674272686243057,-0.2714864909648896,-0.34152585268020624,1.2184696791468346e-07,0.0,0.0,0.0,1.2184696791468346e-07,0.0,0.0,0.0,1.2184696791468346e-07,-0.4511059,1.2258312500000015,12.689805100000001,8.999999999999999e-08,0.0,0.0,0.0,8.999999999999999e-08,0.0,0.0,0.0,8.999999999999999e-08
1536689974.7826235,3785,1536689974,781808366,base_link,-0.38033878081963235,-0.027864085523057337,0.11438139948186937,-0.9173237705386079,1.0,0.0,0.0,0.0,1.0,0.0,0.0,0.0,1.0,0.007700647227466106,-0.505103349685669,-0.3657917380332946,1.2184696791468346e-07,0.0,0.0,0.0,1.2184696791468346e-07,0.0,0.0,0.0,1.2184696791468346e-07,-0.61781895,0.588399000000002,15.739673250000001,8.999999999999999e-08,0.0,0.0,0.0,8.999999999999999e-08,0.0,0.0,0.0,8.999999999999999e-08
1536689975.1488075,3786,1536689975,148469195,base_link,-0.36637228558872337,0.024030199459065944,0.1853360541274593,-0.9115066894471568,1.0,0.0,0.0,0.0,1.0,0.0,0.0,0.0,1.0,-0.11561481654644012,-0.31847530603408813,-0.22007177770137784,1.2184696791468346e-07,0.0,0.0,0.0,1.2184696791468346e-07,0.0,0.0,0.0,1.2184696791468346e-07,-0.12748645,0.5785923500000024,19.0837409,8.999999999999999e-08,0.0,0.0,0.0,8.999999999999999e-08,0.0,0.0,0.0,8.999999999999999e-08
1536689975.4745271,3787,1536689975,474154638,base_link,-0.3466918209941569,0.04625423600499086,0.23457780686974505,-0.9069942554567425,1.0,0.0,0.0,0.0,1.0,0.0,0.0,0.0,1.0,0.06763545423746109,-0.30637255311012274,-0.3402716517448425,1.2184696791468346e-07,0.0,0.0,0.0,1.2184696791468346e-07,0.0,0.0,0.0,1.2184696791468346e-07,-0.2549729,0.7354987500000015,12.944778,8.999999999999999e-08,0.0,0.0,0.0,8.999999999999999e-08,0.0,0.0,0.0,8.999999999999999e-08
1536689975.9545372,3788,1536689975,954054080,base_link,-0.34736443706399694,0.09512805585039884,0.32942650871385193,-0.8727925161285117,1.0,0.0,0.0,0.0,1.0,0.0,0.0,0.0,1.0,0.16251778602600098,-0.3259518146514893,-0.32016980648040766,1.2184696791468346e-07,0.0,0.0,0.0,1.2184696791468346e-07,0.0,0.0,0.0,1.2184696791468346e-07,-0.24516625,0.3530394000000019,15.26895405,8.999999999999999e-08,0.0,0.0,0.0,8.999999999999999e-08,0.0,0.0,0.0,8.999999999999999e-08
1536689976.3321185,3789,1536689976,331827524,base_link,-0.33618786807734247,0.12970785445173497,0.38186677898293636,-0.8510765846622361,1.0,0.0,0.0,0.0,1.0,0.0,0.0,0.0,1.0,-0.012821576558053493,-0.2324544042348862,-0.23958234488964078,1.2184696791468346e-07,0.0,0.0,0.0,1.2184696791468346e-07,0.0,0.0,0.0,1.2184696791468346e-07,-0.0392266,1.2650578500000016,14.09215605,8.999999999999999e-08,0.0,0.0,0.0,8.999999999999999e-08,0.0,0.0,0.0,8.999999999999999e-08
1536689976.7831154,3790,1536689976,781797252,base_link,-0.28516576036294616,0.13050552540828111,0.46088635125585986,-0.8302003181043667,1.0,0.0,0.0,0.0,1.0,0.0,0.0,0.0,1.0,-0.32432982325553894,-0.24584823846817022,-0.34366622567176813,1.2184696791468346e-07,0.0,0.0,0.0,1.2184696791468346e-07,0.0,0.0,0.0,1.2184696791468346e-07,-0.16671305,0.6374322500000019,15.827933100000001,8.999999999999999e-08,0.0,0.0,0.0,8.999999999999999e-08,0.0,0.0,0.0,8.999999999999999e-08
1536689977.1227298,3791,1536689977,122488798,base_link,-0.216135775090455,0.1301026130621091,0.5138132267279186,-0.8199723195571322,1.0,0.0,0.0,0.0,1.0,0.0,0.0,0.0,1.0,-0.3635281026363373,-0.2874143719673157,-0.13509581983089444,1.2184696791468346e-07,0.0,0.0,0.0,1.2184696791468346e-07,0.0,0.0,0.0,1.2184696791468346e-07,-0.59820565,1.575670348311021e-15,12.866324800000001,8.999999999999999e-08,0.0,0.0,0.0,8.999999999999999e-08,0.0,0.0,0.0,8.999999999999999e-08
1536689977.6212692,3792,1536689977,620946501,base_link,-0.09415728504934046,0.12417240542246911,0.55129200884773,-0.8196296361066805,1.0,0.0,0.0,0.0,1.0,0.0,0.0,0.0,1.0,-0.4711673855781555,-0.1700490713119507,-0.11655909568071363,1.2184696791468346e-07,0.0,0.0,0.0,1.2184696791468346e-07,0.0,0.0,0.0,1.2184696791468346e-07,-0.67665885,0.6570455500000016,14.0431228,8.999999999999999e-08,0.0,0.0,0.0,8.999999999999999e-08,0.0,0.0,0.0,8.999999999999999e-08
1536689978.0533266,3793,1536689978,52236245,base_link,-0.031037386765451792,0.1055777566238888,0.5827682650647207,-0.8051528843409146,1.0,0.0,0.0,0.0,1.0,0.0,0.0,0.0,1.0,-0.11100025475025177,-0.0864522233605385,-0.1468983143568039,1.2184696791468346e-07,0.0,0.0,0.0,1.2184696791468346e-07,0.0,0.0,0.0,1.2184696791468346e-07,-0.784532,0.4020726500000015,12.05237285,8.999999999999999e-08,0.0,0.0,0.0,8.999999999999999e-08,0.0,0.0,0.0,8.999999999999999e-08
1536689978.4770677,3794,1536689978,475938877,base_link,-0.023090068668354446,0.10281611078673016,0.6012893499395412,-0.7920522796765788,1.0,0.0,0.0,0.0,1.0,0.0,0.0,0.0,1.0,0.07263264060020447,-0.017818666994571693,-0.0672769695520401,1.2184696791468346e-07,0.0,0.0,0.0,1.2184696791468346e-07,0.0,0.0,0.0,1.2184696791468346e-07,-0.89240515,0.0098066500000011,8.9828914,8.999999999999999e-08,0.0,0.0,0.0,8.999999999999999e-08,0.0,0.0,0.0,8.999999999999999e-08
1536689978.9098005,3795,1536689978,909354111,base_link,-0.06418853050387803,0.1110938961028682,0.6050326385110126,-0.7857948110905544,1.0,0.0,0.0,0.0,1.0,0.0,0.0,0.0,1.0,0.25517088174819946,0.10361208021640776,-0.05962663516402246,1.2184696791468346e-07,0.0,0.0,0.0,1.2184696791468346e-07,0.0,0.0,0.0,1.2184696791468346e-07,-0.97085835,0.28439285000000086,6.7665885,8.999999999999999e-08,0.0,0.0,0.0,8.999999999999999e-08,0.0,0.0,0.0,8.999999999999999e-08
1536689979.242924,3796,1536689979,242416882,base_link,-0.11367797740073353,0.11487705350724424,0.6045647598139131,-0.7799884814679747,1.0,0.0,0.0,0.0,1.0,0.0,0.0,0.0,1.0,0.2720799446105957,0.19545263051986694,-0.08296232670545581,1.2184696791468346e-07,0.0,0.0,0.0,1.2184696791468346e-07,0.0,0.0,0.0,1.2184696791468346e-07,-1.04931155,0.46091255000000075,6.4135491,8.999999999999999e-08,0.0,0.0,0.0,8.999999999999999e-08,0.0,0.0,0.0,8.999999999999999e-08
1536689979.5990484,3797,1536689979,598633360,base_link,-0.1819487860576931,0.13191230269588022,0.6120910026748292,-0.7581809731812877,1.0,0.0,0.0,0.0,1.0,0.0,0.0,0.0,1.0,0.38152870535850525,0.11104317754507062,-0.1864955574274063,1.2184696791468346e-07,0.0,0.0,0.0,1.2184696791468346e-07,0.0,0.0,0.0,1.2184696791468346e-07,-0.99047165,0.5982056500000008,6.2370294,8.999999999999999e-08,0.0,0.0,0.0,8.999999999999999e-08,0.0,0.0,0.0,8.999999999999999e-08
1536689979.9504123,3798,1536689979,950138844,base_link,-0.2425369074525556,0.1523691784569029,0.6315937600448227,-0.7204504176223107,1.0,0.0,0.0,0.0,1.0,0.0,0.0,0.0,1.0,0.30815544724464417,0.006460204720497099,-0.2644244134426117,1.2184696791468346e-07,0.0,0.0,0.0,1.2184696791468346e-07,0.0,0.0,0.0,1.2184696791468346e-07,-0.89240515,0.5883990000000009,6.95291485,8.999999999999999e-08,0.0,0.0,0.0,8.999999999999999e-08,0.0,0.0,0.0,8.999999999999999e-08
1536689980.3905795,3799,1536689980,387132219,base_link,-0.2767393470095582,0.17895394917992227,0.6683623655222034,-0.6668452341009852,1.0,0.0,0.0,0.0,1.0,0.0,0.0,0.0,1.0,0.17402225732803345,-0.17095628380775454,-0.273955374956131,1.2184696791468346e-07,0.0,0.0,0.0,1.2184696791468346e-07,0.0,0.0,0.0,1.2184696791468346e-07,-0.63743225,0.6766588500000011,9.56148375,8.999999999999999e-08,0.0,0.0,0.0,8.999999999999999e-08,0.0,0.0,0.0,8.999999999999999e-08
1536689980.7481518,3800,1536689980,747803284,base_link,0.2796908052063509,-0.19465994443832385,-0.7027032784502214,0.6245707821933414,1.0,0.0,0.0,0.0,1.0,0.0,0.0,0.0,1.0,0.06287504732608795,-0.18392398953437808,-0.3309754431247711,1.2184696791468346e-07,0.0,0.0,0.0,1.2184696791468346e-07,0.0,0.0,0.0,1.2184696791468346e-07,-0.48052585000000003,0.8139519500000014,11.75817335,8.999999999999999e-08,0.0,0.0,0.0,8.999999999999999e-08,0.0,0.0,0.0,8.999999999999999e-08
1536689981.1297967,3801,1536689981,129559014,base_link,0.28319470357456966,-0.22437385940905813,-0.7475171839869476,0.5573824456559606,1.0,0.0,0.0,0.0,1.0,0.0,0.0,0.0,1.0,-0.006357248872518539,-0.22118707001209265,-0.3437519371509552,1.2184696791468346e-07,0.0,0.0,0.0,1.2184696791468346e-07,0.0,0.0,0.0,1.2184696791468346e-07,-0.1765197,0.6374322500000014,11.8268199,8.999999999999999e-08,0.0,0.0,0.0,8.999999999999999e-08,0.0,0.0,0.0,8.999999999999999e-08
1536689981.5373595,3802,1536689981,536008297,base_link,0.2763869290918859,-0.2562184783338077,-0.7830181389732404,0.4948180987255298,1.0,0.0,0.0,0.0,1.0,0.0,0.0,0.0,1.0,0.14194931089878082,-0.3828366696834564,-0.18557794392108912,1.2184696791468346e-07,0.0,0.0,0.0,1.2184696791468346e-07,0.0,0.0,0.0,1.2184696791468346e-07,0.12748645,0.31381280000000167,13.64105015,8.999999999999999e-08,0.0,0.0,0.0,8.999999999999999e-08,0.0,0.0,0.0,8.999999999999999e-08
1536689981.9800856,3803,1536689981,979520152,base_link,0.22457725231864215,-0.2919910168451942,-0.8195766555489188,0.4388626316992222,1.0,0.0,0.0,0.0,1.0,0.0,0.0,0.0,1.0,-0.024132953956723213,-0.3615880906581879,-0.2671495378017425,1.2184696791468346e-07,0.0,0.0,0.0,1.2184696791468346e-07,0.0,0.0,0.0,1.2184696791468346e-07,0.6668522,1.421964250000002,15.5925735,8.999999999999999e-08,0.0,0.0,0.0,8.999999999999999e-08,0.0,0.0,0.0,8.999999999999999e-08
1536689982.343224,3804,1536689982,342831312,base_link,0.18830977059478654,-0.31200147069377104,-0.853585107338794,0.37227271873303097,1.0,0.0,0.0,0.0,1.0,0.0,0.0,0.0,1.0,-0.0776202380657196,-0.44087707996368414,-0.3580676317214965,1.2184696791468346e-07,0.0,0.0,0.0,1.2184696791468346e-07,0.0,0.0,0.0,1.2184696791468346e-07,0.91201845,1.421964250000002,15.5141203,8.999999999999999e-08,0.0,0.0,0.0,8.999999999999999e-08,0.0,0.0,0.0,8.999999999999999e-08
1536689982.7161117,3805,1536689982,715780230,base_link,0.14305258421898442,-0.3392682072207563,-0.8823700599534401,0.29301214823834026,1.0,0.0,0.0,0.0,1.0,0.0,0.0,0.0,1.0,0.05505259707570076,-0.4376883804798127,-0.25448560714721674,1.2184696791468346e-07,0.0,0.0,0.0,1.2184696791468346e-07,0.0,0.0,0.0,1.2184696791468346e-07,1.0983448,0.539365750000002,16.05348605,8.999999999999999e-08,0.0,0.0,0.0,8.999999999999999e-08,0.0,0.0,0.0,8.999999999999999e-08
1536689982.9830852,3806,1536689982,979971650,base_link,0.1052636014985261,-0.3643128852523519,-0.8917122553710009,0.24707276146882093,1.0,0.0,0.0,0.0,1.0,0.0,0.0,0.0,1.0,0.031502749770879745,-0.5231123566627502,-0.1691917479038238,1.2184696791468346e-07,0.0,0.0,0.0,1.2184696791468346e-07,0.0,0.0,0.0,1.2184696791468346e-07,1.5102241,1.0493115500000023,19.25045395,8.999999999999999e-08,0.0,0.0,0.0,8.999999999999999e-08,0.0,0.0,0.0,8.999999999999999e-08
1536689983.4068124,3807,1536689983,406494850,base_link,0.024981378518600487,-0.38215249395287537,-0.9104803880516439,0.15607967537842943,1.0,0.0,0.0,0.0,1.0,0.0,0.0,0.0,1.0,-0.04323732107877731,-0.5229983925819397,-0.3338326215744018,1.2184696791468346e-07,0.0,0.0,0.0,1.2184696791468346e-07,0.0,0.0,0.0,1.2184696791468346e-07,1.7063571,1.0100849500000022,18.54437515,8.999999999999999e-08,0.0,0.0,0.0,8.999999999999999e-08,0.0,0.0,0.0,8.999999999999999e-08
1536689983.8562727,3808,1536689983,856038386,base_link,-0.02107557248666503,-0.4045721537330205,-0.9116217304125995,0.06944791795094989,1.0,0.0,0.0,0.0,1.0,0.0,0.0,0.0,1.0,0.042441997677087784,-0.3428329825401306,-0.1675203144550323,1.2184696791468346e-07,0.0,0.0,0.0,1.2184696791468346e-07,0.0,0.0,0.0,1.2184696791468346e-07,0.8433719,0.6864655000000017,13.18994425,8.999999999999999e-08,0.0,0.0,0.0,8.999999999999999e-08,0.0,0.0,0.0,8.999999999999999e-08
1536689984.2472544,3809,1536689984,247025264,base_link,-0.05722577030539622,-0.40872141815215557,-0.9108608520823873,0.0021264290234899587,1.0,0.0,0.0,0.0,1.0,0.0,0.0,0.0,1.0,-0.09049389511346817,-0.22055651247501376,-0.2617173492908478,1.2184696791468346e-07,0.0,0.0,0.0,1.2184696791468346e-07,0.0,0.0,0.0,1.2184696791468346e-07,0.7649187,1.0689248500000017,13.2389775,8.999999999999999e-08,0.0,0.0,0.0,8.999999999999999e-08,0.0,0.0,0.0,8.999999999999999e-08
1536689984.699852,3810,1536689984,699197343,base_link,-0.09770469007632665,-0.39905444264793744,-0.9078702562442362,-0.08355203867685108,1.0,0.0,0.0,0.0,1.0,0.0,0.0,0.0,1.0,-0.0947980210185051,-0.34680253267288214,-0.23478093743324274,1.2184696791468346e-07,0.0,0.0,0.0,1.2184696791468346e-07,0.0,0.0,0.0,1.2184696791468346e-07,0.9610517000000001,0.8041453000000021,17.30873725,8.999999999999999e-08,0.0,0.0,0.0,8.999999999999999e-08,0.0,0.0,0.0,8.999999999999999e-08
1536689985.1046972,3811,1536689985,104447151,base_link,-0.11507210825986804,-0.39398392656625464,-0.8969744281896003,-0.1642313937163194,1.0,0.0,0.0,0.0,1.0,0.0,0.0,0.0,1.0,-0.03650551289319992,-0.0700522735714913,-0.4380302131175995,1.2184696791468346e-07,0.0,0.0,0.0,1.2184696791468346e-07,0.0,0.0,0.0,1.2184696791468346e-07,0.18632635,1.2454445500000013,10.9638347,8.999999999999999e-08,0.0,0.0,0.0,8.999999999999999e-08,0.0,0.0,0.0,8.999999999999999e-08
1536689985.563137,3812,1536689985,562823129,base_link,-0.14018566847015304,-0.4045949992325944,-0.8623860327397858,-0.2700762771642237,1.0,0.0,0.0,0.0,1.0,0.0,0.0,0.0,1.0,0.15471777319908142,-0.3794065415859223,-0.24782760441303248,1.2184696791468346e-07,0.0,0.0,0.0,1.2184696791468346e-07,0.0,0.0,0.0,1.2184696791468346e-07,-0.20593965,0.27458620000000156,12.58193195,8.999999999999999e-08,0.0,0.0,0.0,8.999999999999999e-08,0.0,0.0,0.0,8.999999999999999e-08
1536689985.9204443,3813,1536689985,919979445,base_link,-0.16921537294502165,-0.3765354001523355,-0.8471664714921465,-0.3345089230061641,1.0,0.0,0.0,0.0,1.0,0.0,0.0,0.0,1.0,-0.05716002732515335,-0.2744425237178803,-0.2679378390312194,1.2184696791468346e-07,0.0,0.0,0.0,1.2184696791468346e-07,0.0,0.0,0.0,1.2184696791468346e-07,0.0,1.0787315000000017,13.2193642,8.999999999999999e-08,0.0,0.0,0.0,8.999999999999999e-08,0.0,0.0,0.0,8.999999999999999e-08
1536689986.3425517,3814,1536689986,342280145,base_link,-0.17452611120022285,-0.36846054890542873,-0.8158949568438928,-0.40999131674504974,1.0,0.0,0.0,0.0,1.0,0.0,0.0,0.0,1.0,-0.06648749858140945,-0.17898060381412512,-0.3747909367084503,1.2184696791468346e-07,0.0,0.0,0.0,1.2184696791468346e-07,0.0,0.0,0.0,1.2184696791468346e-07,-0.40207265000000003,0.7943386500000013,10.52253545,8.999999999999999e-08,0.0,0.0,0.0,8.999999999999999e-08,0.0,0.0,0.0,8.999999999999999e-08
1536689986.720126,3815,1536689986,719779647,base_link,-0.19898461486361388,-0.35739413117012675,-0.775514771109906,-0.48088605494761405,1.0,0.0,0.0,0.0,1.0,0.0,0.0,0.0,1.0,-0.024858932942152023,-0.3049569129943848,-0.2816737294197082,1.2184696791468346e-07,0.0,0.0,0.0,1.2184696791468346e-07,0.0,0.0,0.0,1.2184696791468346e-07,-0.38245935,0.3628460500000018,14.660941750000001,8.999999999999999e-08,0.0,0.0,0.0,8.999999999999999e-08,0.0,0.0,0.0,8.999999999999999e-08
1536689987.0057871,3816,1536689987,5482754,base_link,-0.20747813495095016,-0.33967624912144456,-0.752293743328878,-0.5250018981377931,1.0,0.0,0.0,0.0,1.0,0.0,0.0,0.0,1.0,-0.019179316237568855,-0.2303094565868378,-0.2703501880168914,1.2184696791468346e-07,0.0,0.0,0.0,1.2184696791468346e-07,0.0,0.0,0.0,1.2184696791468346e-07,-0.50013915,0.5099458000000012,10.48330885,8.999999999999999e-08,0.0,0.0,0.0,8.999999999999999e-08,0.0,0.0,0.0,8.999999999999999e-08
1536689987.492189,3817,1536689987,490493112,base_link,-0.2559215886603027,-0.3302120564666174,-0.6908952145004265,-0.5900236781707018,1.0,0.0,0.0,0.0,1.0,0.0,0.0,0.0,1.0,-0.1578153818845749,-0.2055403292179108,-0.26119694113731384,1.2184696791468346e-07,0.0,0.0,0.0,1.2184696791468346e-07,0.0,0.0,0.0,1.2184696791468346e-07,-0.196133,0.9218251000000015,12.17005265,8.999999999999999e-08,0.0,0.0,0.0,8.999999999999999e-08,0.0,0.0,0.0,8.999999999999999e-08
1536689987.8546593,3818,1536689987,854273631,base_link,-0.23834870838443498,-0.29957582356592516,-0.6548575848978206,-0.6516178041214516,1.0,0.0,0.0,0.0,1.0,0.0,0.0,0.0,1.0,-0.14135783910751343,-0.1331557780504227,-0.3310853838920593,1.2184696791468346e-07,0.0,0.0,0.0,1.2184696791468346e-07,0.0,0.0,0.0,1.2184696791468346e-07,-0.44129925000000003,0.9218251000000014,11.8464332,8.999999999999999e-08,0.0,0.0,0.0,8.999999999999999e-08,0.0,0.0,0.0,8.999999999999999e-08
1536689988.3134022,3819,1536689988,313027036,base_link,-0.23348307705387694,-0.2775553191676926,-0.597166566763353,-0.7154304921313067,1.0,0.0,0.0,0.0,1.0,0.0,0.0,0.0,1.0,-0.0522843562066555,-0.18590819835662847,-0.3520876169204712,1.2184696791468346e-07,0.0,0.0,0.0,1.2184696791468346e-07,0.0,0.0,0.0,1.2184696791468346e-07,-0.6472389000000001,0.9218251000000015,12.03275955,8.999999999999999e-08,0.0,0.0,0.0,8.999999999999999e-08,0.0,0.0,0.0,8.999999999999999e-08
1536689988.7487147,3820,1536689988,748188254,base_link,-0.25039337477925727,-0.23329775165293445,-0.5277733617934763,-0.7773870307135002,1.0,0.0,0.0,0.0,1.0,0.0,0.0,0.0,1.0,-0.10891725867986679,-0.4520488381385804,-0.29530966281890864,1.2184696791468346e-07,0.0,0.0,0.0,1.2184696791468346e-07,0.0,0.0,0.0,1.2184696791468346e-07,-0.55897905,0.578592350000002,15.99464615,8.999999999999999e-08,0.0,0.0,0.0,8.999999999999999e-08,0.0,0.0,0.0,8.999999999999999e-08
1536689989.0441983,3821,1536689989,43515455,base_link,-0.26461193559141155,-0.20025110171813434,-0.4818032781548925,-0.8110151792429284,1.0,0.0,0.0,0.0,1.0,0.0,0.0,0.0,1.0,0.00600671861320734,-0.41364452242851263,-0.3078549206256866,1.2184696791468346e-07,0.0,0.0,0.0,1.2184696791468346e-07,0.0,0.0,0.0,1.2184696791468346e-07,-0.4118793,0.578592350000002,16.3182656,8.999999999999999e-08,0.0,0.0,0.0,8.999999999999999e-08,0.0,0.0,0.0,8.999999999999999e-08
1536689989.5480657,3822,1536689989,547647668,base_link,-0.2881933925357752,-0.13929618497060572,-0.39927360641775356,-0.8591401099759667,1.0,0.0,0.0,0.0,1.0,0.0,0.0,0.0,1.0,-0.0553373284637928,-0.19999997317790988,-0.280265212059021,1.2184696791468346e-07,0.0,0.0,0.0,1.2184696791468346e-07,0.0,0.0,0.0,1.2184696791468346e-07,-0.50013915,0.7943386500000018,14.7492016,8.999999999999999e-08,0.0,0.0,0.0,8.999999999999999e-08,0.0,0.0,0.0,8.999999999999999e-08
1536689989.8405652,3823,1536689989,839844649,base_link,-0.289259384876322,-0.12265659548289214,-0.35507802344575307,-0.8804566798607272,1.0,0.0,0.0,0.0,1.0,0.0,0.0,0.0,1.0,-0.05148756504058838,-0.1639414429664612,-0.26731860637664795,1.2184696791468346e-07,0.0,0.0,0.0,1.2184696791468346e-07,0.0,0.0,0.0,1.2184696791468346e-07,-0.59820565,0.4707192000000016,12.8859381,8.999999999999999e-08,0.0,0.0,0.0,8.999999999999999e-08,0.0,0.0,0.0,8.999999999999999e-08
1536689990.2442608,3824,1536689990,243762922,base_link,-0.28808320346847405,-0.12361456929123428,-0.30863776970274465,-0.898036877445019,1.0,0.0,0.0,0.0,1.0,0.0,0.0,0.0,1.0,-0.08217111229896545,-0.115447111427784,-0.2667391896247864,1.2184696791468346e-07,0.0,0.0,0.0,1.2184696791468346e-07,0.0,0.0,0.0,1.2184696791468346e-07,-0.65704555,0.7943386500000011,9.09076455,8.999999999999999e-08,0.0,0.0,0.0,8.999999999999999e-08,0.0,0.0,0.0,8.999999999999999e-08
1536689990.5438826,3825,1536689990,543405612,base_link,-0.2920004979233622,-0.10344681439923345,-0.2586291113443927,-0.9149565282396583,1.0,0.0,0.0,0.0,1.0,0.0,0.0,0.0,1.0,-0.015907324850559235,-0.2954575419425965,-0.2465800344944,1.2184696791468346e-07,0.0,0.0,0.0,1.2184696791468346e-07,0.0,0.0,0.0,1.2184696791468346e-07,-0.79433865,0.5295591000000015,12.4152189,8.999999999999999e-08,0.0,0.0,0.0,8.999999999999999e-08,0.0,0.0,0.0,8.999999999999999e-08
1536689990.8991365,3826,1536689990,898895908,base_link,-0.2992622069778272,-0.07137983556882022,-0.20583334481983634,-0.9289669987191185,1.0,0.0,0.0,0.0,1.0,0.0,0.0,0.0,1.0,0.017737258225679398,-0.21861864626407626,-0.27858126163482666,1.2184696791468346e-07,0.0,0.0,0.0,1.2184696791468346e-07,0.0,0.0,0.0,1.2184696791468346e-07,-0.61781895,1.1473780500000015,12.1210194,8.999999999999999e-08,0.0,0.0,0.0,8.999999999999999e-08,0.0,0.0,0.0,8.999999999999999e-08
1536689991.174837,3827,1536689991,174354849,base_link,-0.29832935273972244,-0.06866339111866968,-0.15953326731426454,-0.9385276088821353,1.0,0.0,0.0,0.0,1.0,0.0,0.0,0.0,1.0,0.0590914785861969,-0.16891840100288397,-0.3885245621204376,1.2184696791468346e-07,0.0,0.0,0.0,1.2184696791468346e-07,0.0,0.0,0.0,1.2184696791468346e-07,-0.4903325,0.9512450500000014,11.9052731,8.999999999999999e-08,0.0,0.0,0.0,8.999999999999999e-08,0.0,0.0,0.0,8.999999999999999e-08
1536689991.6064258,3828,1536689991,606064546,base_link,-0.3174330998896238,-0.06288638629781232,-0.07401416440907321,-0.9432939271402595,1.0,0.0,0.0,0.0,1.0,0.0,0.0,0.0,1.0,-0.00930858962237835,-0.272366613149643,-0.2804801762104034,1.2184696791468346e-07,0.0,0.0,0.0,1.2184696791468346e-07,0.0,0.0,0.0,1.2184696791468346e-07,-0.65704555,0.6668522000000014,10.99325465,8.999999999999999e-08,0.0,0.0,0.0,8.999999999999999e-08,0.0,0.0,0.0,8.999999999999999e-08
1536689991.9414759,3829,1536689991,941161770,base_link,-0.3208952430614973,-0.046198497027099994,-0.02999653774413075,-0.9455115808789992,1.0,0.0,0.0,0.0,1.0,0.0,0.0,0.0,1.0,0.023840656504034996,-0.11088023334741595,-0.2394254505634308,1.2184696791468346e-07,0.0,0.0,0.0,1.2184696791468346e-07,0.0,0.0,0.0,1.2184696791468346e-07,-0.48052585000000003,1.010084950000001,9.5320638,8.999999999999999e-08,0.0,0.0,0.0,8.999999999999999e-08,0.0,0.0,0.0,8.999999999999999e-08
1536689992.3488624,3830,1536689992,348499469,base_link,-0.31375780690424576,-0.03732844131590571,0.030089575917710495,-0.9482917501996184,1.0,0.0,0.0,0.0,1.0,0.0,0.0,0.0,1.0,-0.050529513508081436,-0.24005027115345004,-0.2647810578346252,1.2184696791468346e-07,0.0,0.0,0.0,1.2184696791468346e-07,0.0,0.0,0.0,1.2184696791468346e-07,-0.5295591,0.6374322500000011,9.1986377,8.999999999999999e-08,0.0,0.0,0.0,8.999999999999999e-08,0.0,0.0,0.0,8.999999999999999e-08
1536689992.7521675,3831,1536689992,751840739,base_link,-0.32305829396303165,-0.005126724415480933,0.09689476810091063,-0.9413917671793895,1.0,0.0,0.0,0.0,1.0,0.0,0.0,0.0,1.0,0.27840283513069153,-0.2398071736097336,-0.21839202940464017,1.2184696791468346e-07,0.0,0.0,0.0,1.2184696791468346e-07,0.0,0.0,0.0,1.2184696791468346e-07,-0.12748645,0.4903325000000019,15.1414676,8.999999999999999e-08,0.0,0.0,0.0,8.999999999999999e-08,0.0,0.0,0.0,8.999999999999999e-08
1536689993.0353956,3832,1536689993,34847786,base_link,-0.3372053454715144,0.02027150027677587,0.13105732901783235,-0.9320437746011058,1.0,0.0,0.0,0.0,1.0,0.0,0.0,0.0,1.0,0.0017031710594892502,-0.21100568771362307,-0.19241917133331296,1.2184696791468346e-07,0.0,0.0,0.0,1.2184696791468346e-07,0.0,0.0,0.0,1.2184696791468346e-07,-0.0392266,1.372931000000002,15.0434011,8.999999999999999e-08,0.0,0.0,0.0,8.999999999999999e-08,0.0,0.0,0.0,8.999999999999999e-08
1536689993.380213,3833,1536689993,379859237,base_link,-0.33960681612609234,0.027716110917015636,0.1935356924742181,-0.9200233493639491,1.0,0.0,0.0,0.0,1.0,0.0,0.0,0.0,1.0,0.06622755527496338,-0.19050788879394537,-0.3824459910392761,1.2184696791468346e-07,0.0,0.0,0.0,1.2184696791468346e-07,0.0,0.0,0.0,1.2184696791468346e-07,-0.30400615,0.6864655000000013,10.267562550000001,8.999999999999999e-08,0.0,0.0,0.0,8.999999999999999e-08,0.0,0.0,0.0,8.999999999999999e-08
1536689993.8450723,3834,1536689993,844574342,base_link,-0.33504229807536506,0.06600200439865435,0.288565163547857,-0.8944945725393403,1.0,0.0,0.0,0.0,1.0,0.0,0.0,0.0,1.0,0.037938930094242096,-0.3909852802753449,-0.2764484286308288,1.2184696791468346e-07,0.0,0.0,0.0,1.2184696791468346e-07,0.0,0.0,0.0,1.2184696791468346e-07,0.0,0.4805258500000018,14.6119085,8.999999999999999e-08,0.0,0.0,0.0,8.999999999999999e-08,0.0,0.0,0.0,8.999999999999999e-08
1536689994.2486491,3835,1536689994,248414282,base_link,-0.3475982146816311,0.11750792177028904,0.3521134999503084,-0.8610362667298717,1.0,0.0,0.0,0.0,1.0,0.0,0.0,0.0,1.0,0.06317460536956787,-0.3438840210437775,-0.24740155041217798,1.2184696791468346e-07,0.0,0.0,0.0,1.2184696791468346e-07,0.0,0.0,0.0,1.2184696791468346e-07,-0.0196133,0.6668522000000016,12.75845165,8.999999999999999e-08,0.0,0.0,0.0,8.999999999999999e-08,0.0,0.0,0.0,8.999999999999999e-08
1536689994.7107196,3836,1536689994,709301304,base_link,-0.32902326110726443,0.14576142768870382,0.4134973737644379,-0.8363714615757788,1.0,0.0,0.0,0.0,1.0,0.0,0.0,0.0,1.0,-0.1282154619693756,-0.2936979234218598,-0.2524942755699157,1.2184696791468346e-07,0.0,0.0,0.0,1.2184696791468346e-07,0.0,0.0,0.0,1.2184696791468346e-07,0.18632635,1.0100849500000013,11.522813750000001,8.999999999999999e-08,0.0,0.0,0.0,8.999999999999999e-08,0.0,0.0,0.0,8.999999999999999e-08
1536689995.0419977,3837,1536689995,41335985,base_link,-0.31979543596967974,0.15669098772861065,0.46360012371492176,-0.8113283791345549,1.0,0.0,0.0,0.0,1.0,0.0,0.0,0.0,1.0,0.047946952283382416,-0.23776407539844518,-0.36247855424880976,1.2184696791468346e-07,0.0,0.0,0.0,1.2184696791468346e-07,0.0,0.0,0.0,1.2184696791468346e-07,0.2745862,1.0983448000000016,12.48386545,8.999999999999999e-08,0.0,0.0,0.0,8.999999999999999e-08,0.0,0.0,0.0,8.999999999999999e-08
1536689995.4801352,3838,1536689995,479808025,base_link,-0.3147734368064355,0.1980216905696595,0.5335082495191771,-0.7596538956919672,1.0,0.0,0.0,0.0,1.0,0.0,0.0,0.0,1.0,0.09586983919143677,-0.2523065805435181,-0.23979775607585904,1.2184696791468346e-07,0.0,0.0,0.0,1.2184696791468346e-07,0.0,0.0,0.0,1.2184696791468346e-07,0.55897905,0.5197524500000016,12.6505785,8.999999999999999e-08,0.0,0.0,0.0,8.999999999999999e-08,0.0,0.0,0.0,8.999999999999999e-08
1536689995.8660693,3839,1536689995,865841261,base_link,-0.28513072867555556,0.2247346148322415,0.5870638053951196,-0.7235681784435742,1.0,0.0,0.0,0.0,1.0,0.0,0.0,0.0,1.0,-0.005231618881225586,-0.21919444203376773,-0.3135403096675873,1.2184696791468346e-07,0.0,0.0,0.0,1.2184696791468346e-07,0.0,0.0,0.0,1.2184696791468346e-07,0.8629852,1.2650578500000016,13.8273765,8.999999999999999e-08,0.0,0.0,0.0,8.999999999999999e-08,0.0,0.0,0.0,8.999999999999999e-08
1536689996.1552942,3840,1536689996,154990962,base_link,-0.27958388158946734,0.23943958169074975,0.6261613401705354,-0.687330718032422,1.0,0.0,0.0,0.0,1.0,0.0,0.0,0.0,1.0,0.08017490059137344,-0.2683734595775605,-0.3117803335189819,1.2184696791468346e-07,0.0,0.0,0.0,1.2184696791468346e-07,0.0,0.0,0.0,1.2184696791468346e-07,0.4511059,0.9022118000000016,12.6505785,8.999999999999999e-08,0.0,0.0,0.0,8.999999999999999e-08,0.0,0.0,0.0,8.999999999999999e-08
1536689996.4756424,3841,1536689996,475370904,base_link,0.2757106838110832,-0.2786709864840966,-0.6643493755204823,0.6363693953750058,1.0,0.0,0.0,0.0,1.0,0.0,0.0,0.0,1.0,0.13277055323123932,-0.3388428092002869,-0.2594572007656097,1.2184696791468346e-07,0.0,0.0,0.0,1.2184696791468346e-07,0.0,0.0,0.0,1.2184696791468346e-07,0.784532,0.5982056500000017,14.17060925,8.999999999999999e-08,0.0,0.0,0.0,8.999999999999999e-08,0.0,0.0,0.0,8.999999999999999e-08
1536689996.776385,3842,1536689996,776124401,base_link,0.25665422519769515,-0.3099884463024779,-0.697996354056507,0.5923148331512305,1.0,0.0,0.0,0.0,1.0,0.0,0.0,0.0,1.0,0.10995520651340485,-0.36691331863403326,-0.26913017034530634,1.2184696791468346e-07,0.0,0.0,0.0,1.2184696791468346e-07,0.0,0.0,0.0,1.2184696791468346e-07,1.08853815,1.2650578500000016,13.2389775,8.999999999999999e-08,0.0,0.0,0.0,8.999999999999999e-08,0.0,0.0,0.0,8.999999999999999e-08
1536689997.180025,3843,1536689997,179768028,base_link,0.22165987126779063,-0.35048974314762465,-0.7490741459143678,0.5166350407594501,1.0,0.0,0.0,0.0,1.0,0.0,0.0,0.0,1.0,0.033574894070625305,-0.5556476712226868,-0.30444645881652826,1.2184696791468346e-07,0.0,0.0,0.0,1.2184696791468346e-07,0.0,0.0,0.0,1.2184696791468346e-07,1.12776475,0.7943386500000021,16.769371500000002,8.999999999999999e-08,0.0,0.0,0.0,8.999999999999999e-08,0.0,0.0,0.0,8.999999999999999e-08
1536689997.5391011,3844,1536689997,538747988,base_link,0.1651917773751111,-0.3964805418859471,-0.785422473241408,0.4456752125941347,1.0,0.0,0.0,0.0,1.0,0.0,0.0,0.0,1.0,-0.10389094799757004,-0.477716863155365,-0.22480025887489313,1.2184696791468346e-07,0.0,0.0,0.0,1.2184696791468346e-07,0.0,0.0,0.0,1.2184696791468346e-07,1.30428445,1.5788706500000025,19.7898197,8.999999999999999e-08,0.0,0.0,0.0,8.999999999999999e-08,0.0,0.0,0.0,8.999999999999999e-08
1536689997.8809361,3845,1536689997,880706879,base_link,0.13331726375808725,-0.39570696034957037,-0.822188160446905,0.3868451079384285,1.0,0.0,0.0,0.0,1.0,0.0,0.0,0.0,1.0,0.02530749887228012,-0.3830335438251496,-0.3629321455955505,1.2184696791468346e-07,0.0,0.0,0.0,1.2184696791468346e-07,0.0,0.0,0.0,1.2184696791468346e-07,0.9610517000000001,0.8924051500000019,14.28828905,8.999999999999999e-08,0.0,0.0,0.0,8.999999999999999e-08,0.0,0.0,0.0,8.999999999999999e-08
1536689998.1970153,3846,1536689998,196553356,base_link,0.10007351312467833,-0.3892092285681387,-0.8562268398205284,0.32461834073143536,1.0,0.0,0.0,0.0,1.0,0.0,0.0,0.0,1.0,0.11148592829704285,-0.3495695888996125,-0.30337837338447565,1.2184696791468346e-07,0.0,0.0,0.0,1.2184696791468346e-07,0.0,0.0,0.0,1.2184696791468346e-07,0.6276256,0.4903325000000019,15.288567350000001,8.999999999999999e-08,0.0,0.0,0.0,8.999999999999999e-08,0.0,0.0,0.0,8.999999999999999e-08
1536689998.5824041,3847,1536689998,581699745,base_link,0.069705181981718,-0.41392027684024996,-0.8716182162443225,0.2531657108228754,1.0,0.0,0.0,0.0,1.0,0.0,0.0,0.0,1.0,-0.09930044412612915,-0.43020749092102056,-0.22821049392223353,1.2184696791468346e-07,0.0,0.0,0.0,1.2184696791468346e-07,0.0,0.0,0.0,1.2184696791468346e-07,0.2549729,0.6766588500000018,14.9845612,8.999999999999999e-08,0.0,0.0,0.0,8.999999999999999e-08,0.0,0.0,0.0,8.999999999999999e-08
1536689998.8698106,3848,1536689998,868787089,base_link,0.03864644421295265,-0.41834793827392197,-0.8845335338721181,0.20271132762466978,1.0,0.0,0.0,0.0,1.0,0.0,0.0,0.0,1.0,-0.036856599152088165,-0.2870877385139466,-0.2621955573558807,1.2184696791468346e-07,0.0,0.0,0.0,1.2184696791468346e-07,0.0,0.0,0.0,1.2184696791468346e-07,0.4118793,0.5982056500000016,13.34685065,8.999999999999999e-08,0.0,0.0,0.0,8.999999999999999e-08,0.0,0.0,0.0,8.999999999999999e-08
1536689999.2925425,3849,1536689999,292306272,base_link,0.010471109756555986,-0.41824471884429776,-0.8981155003666301,0.13546312790024456,1.0,0.0,0.0,0.0,1.0,0.0,0.0,0.0,1.0,-0.12488861382007599,-0.24916842579841617,-0.26832947134971613,1.2184696791468346e-07,0.0,0.0,0.0,1.2184696791468346e-07,0.0,0.0,0.0,1.2184696791468346e-07,0.0,1.0198916000000013,11.8464332,8.999999999999999e-08,0.0,0.0,0.0,8.999999999999999e-08,0.0,0.0,0.0,8.999999999999999e-08
1536689999.6121824,3850,1536689999,610877097,base_link,-0.0019136095701358959,-0.4096252633422998,-0.9088373134786558,0.07885568691644267,1.0,0.0,0.0,0.0,1.0,0.0,0.0,0.0,1.0,-0.087793730199337,-0.10704395920038227,-0.35196205973625183,1.2184696791468346e-07,0.0,0.0,0.0,1.2184696791468346e-07,0.0,0.0,0.0,1.2184696791468346e-07,-0.0784532,1.4709975000000017,13.405690550000001,8.999999999999999e-08,0.0,0.0,0.0,8.999999999999999e-08,0.0,0.0,0.0,8.999999999999999e-08
1536689999.876736,3851,1536689999,876361333,base_link,0.002147026662713047,-0.408243102648371,-0.9126776910609185,0.01877209781169241,1.0,0.0,0.0,0.0,1.0,0.0,0.0,0.0,1.0,0.06440304964780807,-0.13282559812068945,-0.38576236367225647,1.2184696791468346e-07,0.0,0.0,0.0,1.2184696791468346e-07,0.0,0.0,0.0,1.2184696791468346e-07,-0.28439285000000003,0.3628460500000014,11.40513395,8.999999999999999e-08,0.0,0.0,0.0,8.999999999999999e-08,0.0,0.0,0.0,8.999999999999999e-08
