Time,header.seq,header.stamp.secs,header.stamp.nsecs,header.frame_id,orientation.x,orientation.y,orientation.z,orientation.w,orientation_covariance_0,orientation_covariance_1,orientation_covariance_2,orientation_covariance_3,orientation_covariance_4,orientation_covariance_5,orientation_covariance_6,orientation_covariance_7,orientation_covariance_8,angular_velocity.x,angular_velocity.y,angular_velocity.z,angular_velocity_covariance_0,angular_velocity_covariance_1,angular_velocity_covariance_2,angular_velocity_covariance_3,angular_velocity_covariance_4,angular_velocity_covariance_5,angular_velocity_covariance_6,angular_velocity_covariance_7,angular_velocity_covariance_8,linear_acceleration.x,linear_acceleration.y,linear_acceleration.z,linear_acceleration_covariance_0,linear_acceleration_covariance_1,linear_acceleration_covariance_2,linear_acceleration_covariance_3,linear_acceleration_covariance_4,linear_acceleration_covariance_5,linear_acceleration_covariance_6,linear_acceleration_covariance_7,linear_acceleration_covariance_8
1538769413.0248885,1129,1538769413,24003488,base_link,-0.06956110237764919,0.21493662380341413,-0.8718405007388945,0.43457754435238544,1.0,0.0,0.0,0.0,1.0,0.0,0.0,0.0,1.0,0.5859648585319519,-0.2964675724506378,0.21360599994659427,1.2184696791468346e-07,0.0,0.0,0.0,1.2184696791468346e-07,0.0,0.0,0.0,1.2184696791468346e-07,-1.7455837,0.9806650000000018,15.0826277,8.999999999999999e-08,0.0,0.0,0.0,8.999999999999999e-08,0.0,0.0,0.0,8.999999999999999e-08
1538769413.263366,1130,1538769413,262805088,base_link,-0.06644541198167164,0.1450498719090943,-0.8698700206477519,0.46676727505687576,1.0,0.0,0.0,0.0,1.0,0.0,0.0,0.0,1.0,0.5192910432815552,-0.25866568088531494,0.17753046751022342,1.2184696791468346e-07,0.0,0.0,0.0,1.2184696791468346e-07,0.0,0.0,0.0,1.2184696791468346e-07,-1.50041745,1.4219642500000023,17.5539035,8.999999999999999e-08,0.0,0.0,0.0,8.999999999999999e-08,0.0,0.0,0.0,8.999999999999999e-08
1538769413.6312962,1131,1538769413,628896256,base_link,-0.11984651400166722,0.2144643379366172,-0.835181703664642,0.49205018311030324,1.0,0.0,0.0,0.0,1.0,0.0,0.0,0.0,1.0,-0.6033163666725159,-0.010797072201967224,0.12470946460962296,1.2184696791468346e-07,0.0,0.0,0.0,1.2184696791468346e-07,0.0,0.0,0.0,1.2184696791468346e-07,-1.55925735,1.5788706500000016,12.9055514,8.999999999999999e-08,0.0,0.0,0.0,8.999999999999999e-08,0.0,0.0,0.0,8.999999999999999e-08
1538769413.977104,1132,1538769413,976686592,base_link,-0.1538930290561879,0.268547091051552,-0.818085083019096,0.48470216879780914,1.0,0.0,0.0,0.0,1.0,0.0,0.0,0.0,1.0,-0.3211967945098877,0.008913254365324974,-0.0008096809033304464,1.2184696791468346e-07,0.0,0.0,0.0,1.2184696791468346e-07,0.0,0.0,0.0,1.2184696791468346e-07,-1.8632635,0.5393657500000013,10.20872265,8.999999999999999e-08,0.0,0.0,0.0,8.999999999999999e-08,0.0,0.0,0.0,8.999999999999999e-08
1538769414.2768567,1133,1538769414,276423616,base_link,-0.09083153146235308,0.16714798882089782,-0.8524037100176655,0.48705143247243615,1.0,0.0,0.0,0.0,1.0,0.0,0.0,0.0,1.0,2.0585975646972656,0.11763799190521239,-0.1401835232973099,1.2184696791468346e-07,0.0,0.0,0.0,1.2184696791468346e-07,0.0,0.0,0.0,1.2184696791468346e-07,-2.04958985,-1.029698249999999,9.5320638,8.999999999999999e-08,0.0,0.0,0.0,8.999999999999999e-08,0.0,0.0,0.0,8.999999999999999e-08
1538769414.6177776,1134,1538769414,617533888,base_link,0.08885994934067062,-0.06277417161618275,-0.8533951142533484,0.5097843580864265,1.0,0.0,0.0,0.0,1.0,0.0,0.0,0.0,1.0,1.2431796789169312,0.22674177587032324,0.34048026800155634,1.2184696791468346e-07,0.0,0.0,0.0,1.2184696791468346e-07,0.0,0.0,0.0,1.2184696791468346e-07,-2.01036325,-0.696272149999999,8.11009955,8.999999999999999e-08,0.0,0.0,0.0,8.999999999999999e-08,0.0,0.0,0.0,8.999999999999999e-08
1538769415.0132911,1135,1538769415,13080800,base_link,0.17807694653902115,-0.17223877972226573,-0.8163827129352444,0.5216719945440944,1.0,0.0,0.0,0.0,1.0,0.0,0.0,0.0,1.0,0.43577584624290466,0.05121509358286856,-0.10618305206298828,1.2184696791468346e-07,0.0,0.0,0.0,1.2184696791468346e-07,0.0,0.0,0.0,1.2184696791468346e-07,-1.97113665,0.784532000000001,7.75706015,8.999999999999999e-08,0.0,0.0,0.0,8.999999999999999e-08,0.0,0.0,0.0,8.999999999999999e-08
1538769415.3535423,1136,1538769415,353283424,base_link,0.21221147037160834,-0.20060905539978147,-0.8262408388623318,0.481713997025619,1.0,0.0,0.0,0.0,1.0,0.0,0.0,0.0,1.0,0.1943986862897873,-0.042479258030653035,-0.3060673773288727,1.2184696791468346e-07,0.0,0.0,0.0,1.2184696791468346e-07,0.0,0.0,0.0,1.2184696791468346e-07,-1.9417167,0.29419950000000106,8.87501825,8.999999999999999e-08,0.0,0.0,0.0,8.999999999999999e-08,0.0,0.0,0.0,8.999999999999999e-08
1538769415.7133398,1137,1538769415,713040352,base_link,0.2429742652105631,-0.26106177108568873,-0.8322685924069907,0.4244281425823183,1.0,0.0,0.0,0.0,1.0,0.0,0.0,0.0,1.0,0.2213779240846634,-0.1536284536123276,-0.1481545716524124,1.2184696791468346e-07,0.0,0.0,0.0,1.2184696791468346e-07,0.0,0.0,0.0,1.2184696791468346e-07,-1.7259704,0.29419950000000133,10.7284751,8.999999999999999e-08,0.0,0.0,0.0,8.999999999999999e-08,0.0,0.0,0.0,8.999999999999999e-08
1538769416.2359776,1138,1538769416,235138848,base_link,0.2298701349966725,-0.3000450737342968,-0.8590097605173357,0.3453040777348877,1.0,0.0,0.0,0.0,1.0,0.0,0.0,0.0,1.0,0.21670015156269073,-0.2742239236831665,-0.2081101983785629,1.2184696791468346e-07,0.0,0.0,0.0,1.2184696791468346e-07,0.0,0.0,0.0,1.2184696791468346e-07,-1.3337044,0.17651970000000153,12.44463885,8.999999999999999e-08,0.0,0.0,0.0,8.999999999999999e-08,0.0,0.0,0.0,8.999999999999999e-08
1538769416.5463514,1139,1538769416,545702080,base_link,0.20799709382515746,-0.32767577608175824,-0.8735229124487441,0.29380863866906615,1.0,0.0,0.0,0.0,1.0,0.0,0.0,0.0,1.0,0.0437229685485363,-0.3014495670795441,-0.24480746686458585,1.2184696791468346e-07,0.0,0.0,0.0,1.2184696791468346e-07,0.0,0.0,0.0,1.2184696791468346e-07,-1.1375714000000001,0.6472389000000017,13.8862164,8.999999999999999e-08,0.0,0.0,0.0,8.999999999999999e-08,0.0,0.0,0.0,8.999999999999999e-08
1538769416.9077792,1140,1538769416,897829920,base_link,0.17783390528572549,-0.3379835076573045,-0.8962166294004654,0.2256944923310292,1.0,0.0,0.0,0.0,1.0,0.0,0.0,0.0,1.0,-0.1552824229001999,-0.3913927376270295,-0.2893910408020019,1.2184696791468346e-07,0.0,0.0,0.0,1.2184696791468346e-07,0.0,0.0,0.0,1.2184696791468346e-07,-0.8041453000000001,0.4903325000000019,15.19050085,8.999999999999999e-08,0.0,0.0,0.0,8.999999999999999e-08,0.0,0.0,0.0,8.999999999999999e-08
1538769417.3806558,1141,1538769417,378463104,base_link,0.11236323501099808,-0.35861460253970023,-0.9153978014477953,0.1442807518960809,1.0,0.0,0.0,0.0,1.0,0.0,0.0,0.0,1.0,0.0032700002193450928,-0.3794735670089722,-0.22701270878314966,1.2184696791468346e-07,0.0,0.0,0.0,1.2184696791468346e-07,0.0,0.0,0.0,1.2184696791468346e-07,-0.5295591,1.098344800000002,16.09271265,8.999999999999999e-08,0.0,0.0,0.0,8.999999999999999e-08,0.0,0.0,0.0,8.999999999999999e-08
1538769417.7825637,1142,1538769417,782216768,base_link,0.06150710057469607,-0.3506923763733376,-0.9326522427246278,0.05823682574829497,1.0,0.0,0.0,0.0,1.0,0.0,0.0,0.0,1.0,0.09497940540313721,-0.38086280226707464,-0.2937756478786468,1.2184696791468346e-07,0.0,0.0,0.0,1.2184696791468346e-07,0.0,0.0,0.0,1.2184696791468346e-07,-0.63743225,0.382459350000002,15.77889985,8.999999999999999e-08,0.0,0.0,0.0,8.999999999999999e-08,0.0,0.0,0.0,8.999999999999999e-08
1538769418.1557937,1143,1538769418,155542656,base_link,0.008403857276435946,-0.36899580987237673,-0.9291620655596975,-0.020720120760806492,1.0,0.0,0.0,0.0,1.0,0.0,0.0,0.0,1.0,0.07861097157001495,-0.3810191452503205,-0.30147752165794367,1.2184696791468346e-07,0.0,0.0,0.0,1.2184696791468346e-07,0.0,0.0,0.0,1.2184696791468346e-07,-0.42168595,0.3236194500000021,17.2793173,8.999999999999999e-08,0.0,0.0,0.0,8.999999999999999e-08,0.0,0.0,0.0,8.999999999999999e-08
1538769418.4624403,1144,1538769418,462008384,base_link,-0.0322919788246444,-0.38389345260242075,-0.9196496332140245,-0.07633870107547926,1.0,0.0,0.0,0.0,1.0,0.0,0.0,0.0,1.0,0.046994052827358246,-0.36848196387290955,-0.1959438025951385,1.2184696791468346e-07,0.0,0.0,0.0,1.2184696791468346e-07,0.0,0.0,0.0,1.2184696791468346e-07,-0.1569064,0.735498750000002,16.11232595,8.999999999999999e-08,0.0,0.0,0.0,8.999999999999999e-08,0.0,0.0,0.0,8.999999999999999e-08
1538769418.8537621,1145,1538769418,853367392,base_link,-0.07286676567429197,-0.38214630284244194,-0.9073470857740986,-0.15929815950371506,1.0,0.0,0.0,0.0,1.0,0.0,0.0,0.0,1.0,0.029543228447437286,-0.30866882205009466,-0.3040244877338409,1.2184696791468346e-07,0.0,0.0,0.0,1.2184696791468346e-07,0.0,0.0,0.0,1.2184696791468346e-07,-0.22555295,0.43149260000000167,13.7096967,8.999999999999999e-08,0.0,0.0,0.0,8.999999999999999e-08,0.0,0.0,0.0,8.999999999999999e-08
1538769419.3892992,1146,1538769419,387861696,base_link,-0.12271539345761909,-0.37636276907633015,-0.881970209682928,-0.25577440742496194,1.0,0.0,0.0,0.0,1.0,0.0,0.0,0.0,1.0,-0.03988533467054367,-0.2754592895507813,-0.35045653581619257,1.2184696791468346e-07,0.0,0.0,0.0,1.2184696791468346e-07,0.0,0.0,0.0,1.2184696791468346e-07,-0.1372931,0.8335652500000016,12.944778,8.999999999999999e-08,0.0,0.0,0.0,8.999999999999999e-08,0.0,0.0,0.0,8.999999999999999e-08
1538769419.690085,1147,1538769419,689753536,base_link,-0.14163556136464567,-0.3738075348802562,-0.8575159735938842,-0.3238420134185815,1.0,0.0,0.0,0.0,1.0,0.0,0.0,0.0,1.0,0.06347832828760147,-0.27220129966735845,-0.3060955703258514,1.2184696791468346e-07,0.0,0.0,0.0,1.2184696791468346e-07,0.0,0.0,0.0,1.2184696791468346e-07,-0.22555295,0.3236194500000016,12.89574475,8.999999999999999e-08,0.0,0.0,0.0,8.999999999999999e-08,0.0,0.0,0.0,8.999999999999999e-08
1538769420.0936499,1148,1538769420,93326336,base_link,-0.1701656324164104,-0.37318706113271893,-0.8196953009480746,-0.3998433300070077,1.0,0.0,0.0,0.0,1.0,0.0,0.0,0.0,1.0,0.020433280616998672,-0.2718379199504853,-0.32320415973663325,1.2184696791468346e-07,0.0,0.0,0.0,1.2184696791468346e-07,0.0,0.0,0.0,1.2184696791468346e-07,-0.1765197,0.5295591000000015,12.7682583,8.999999999999999e-08,0.0,0.0,0.0,8.999999999999999e-08,0.0,0.0,0.0,8.999999999999999e-08
1538769420.4296963,1149,1538769420,428183904,base_link,-0.18563824958863917,-0.3520748408775377,-0.7913578703728688,-0.46404145042187805,1.0,0.0,0.0,0.0,1.0,0.0,0.0,0.0,1.0,-0.15651322901248932,-0.29254925251007086,-0.27551418542861933,1.2184696791468346e-07,0.0,0.0,0.0,1.2184696791468346e-07,0.0,0.0,0.0,1.2184696791468346e-07,-0.20593965,0.47071920000000156,12.26811915,8.999999999999999e-08,0.0,0.0,0.0,8.999999999999999e-08,0.0,0.0,0.0,8.999999999999999e-08
1538769420.942469,1150,1538769420,942206496,base_link,-0.17478501802370325,-0.27296490531256506,-0.7668063401406877,-0.554029236288303,1.0,0.0,0.0,0.0,1.0,0.0,0.0,0.0,1.0,-0.37682875990867615,-0.21665956079959875,-0.37011057138442993,1.2184696791468346e-07,0.0,0.0,0.0,1.2184696791468346e-07,0.0,0.0,0.0,1.2184696791468346e-07,-0.34323275,0.9218251000000015,12.6701918,8.999999999999999e-08,0.0,0.0,0.0,8.999999999999999e-08,0.0,0.0,0.0,8.999999999999999e-08
1538769421.2332113,1151,1538769421,232810112,base_link,-0.14409204077412857,-0.2073354947309042,-0.7532096133590238,-0.6073917638178737,1.0,0.0,0.0,0.0,1.0,0.0,0.0,0.0,1.0,-0.5000218749046326,-0.15835475921630862,-0.2820415794849396,1.2184696791468346e-07,0.0,0.0,0.0,1.2184696791468346e-07,0.0,0.0,0.0,1.2184696791468346e-07,-0.4903325,0.5687857000000015,12.40541225,8.999999999999999e-08,0.0,0.0,0.0,8.999999999999999e-08,0.0,0.0,0.0,8.999999999999999e-08
1538769421.7132936,1152,1538769421,713015616,base_link,-0.0900370295773351,-0.12171149972756345,-0.734150348218529,-0.661893428241715,1.0,0.0,0.0,0.0,1.0,0.0,0.0,0.0,1.0,-0.532417893409729,-0.06842083483934405,-0.19960786402225494,1.2184696791468346e-07,0.0,0.0,0.0,1.2184696791468346e-07,0.0,0.0,0.0,1.2184696791468346e-07,-0.67665885,0.6178189500000013,10.75789505,8.999999999999999e-08,0.0,0.0,0.0,8.999999999999999e-08,0.0,0.0,0.0,8.999999999999999e-08
1538769422.0548275,1153,1538769422,54520192,base_link,-0.03662458544962714,-0.05885575230863925,-0.72591165089581,-0.6842856970992064,1.0,0.0,0.0,0.0,1.0,0.0,0.0,0.0,1.0,-0.45579594373703003,-0.02857960760593415,-0.04281333833932876,1.2184696791468346e-07,0.0,0.0,0.0,1.2184696791468346e-07,0.0,0.0,0.0,1.2184696791468346e-07,-0.65704555,0.3922660000000013,10.1008495,8.999999999999999e-08,0.0,0.0,0.0,8.999999999999999e-08,0.0,0.0,0.0,8.999999999999999e-08
1538769422.4593961,1154,1538769422,459103584,base_link,0.017863997002752718,0.0005180022263006042,-0.7227908218088601,-0.6908357526891987,1.0,0.0,0.0,0.0,1.0,0.0,0.0,0.0,1.0,-0.2515425384044647,0.01434638537466526,0.0012423119042068703,1.2184696791468346e-07,0.0,0.0,0.0,1.2184696791468346e-07,0.0,0.0,0.0,1.2184696791468346e-07,-0.55897905,0.2059396500000012,9.7478101,8.999999999999999e-08,0.0,0.0,0.0,8.999999999999999e-08,0.0,0.0,0.0,8.999999999999999e-08
1538769422.8547053,1155,1538769422,854147936,base_link,0.04976900562067408,0.024222563578717677,-0.7273373095160861,-0.684044407680602,1.0,0.0,0.0,0.0,1.0,0.0,0.0,0.0,1.0,-0.18187442421913147,0.04060850664973259,0.022613141685724255,1.2184696791468346e-07,0.0,0.0,0.0,1.2184696791468346e-07,0.0,0.0,0.0,1.2184696791468346e-07,-0.61781895,0.5393657500000011,9.0809579,8.999999999999999e-08,0.0,0.0,0.0,8.999999999999999e-08,0.0,0.0,0.0,8.999999999999999e-08
1538769423.2208812,1156,1538769423,220375968,base_link,0.1477398660986596,0.11627530361084247,-0.7271956392308475,-0.6601814053871824,1.0,0.0,0.0,0.0,1.0,0.0,0.0,0.0,1.0,-0.7926157116889954,0.05115560069680215,0.08816224336624146,1.2184696791468346e-07,0.0,0.0,0.0,1.2184696791468346e-07,0.0,0.0,0.0,1.2184696791468346e-07,-0.67665885,0.42168595000000114,8.9828914,8.999999999999999e-08,0.0,0.0,0.0,8.999999999999999e-08,0.0,0.0,0.0,8.999999999999999e-08
1538769423.5012085,1157,1538769423,500715008,base_link,0.2041923400685971,0.17235250279165926,-0.7251752278877016,-0.6346030191362011,1.0,0.0,0.0,0.0,1.0,0.0,0.0,0.0,1.0,-0.44140124320983887,-0.02351912669837473,0.1458563655614853,1.2184696791468346e-07,0.0,0.0,0.0,1.2184696791468346e-07,0.0,0.0,0.0,1.2184696791468346e-07,-0.7060788,0.009806650000001018,8.32584585,8.999999999999999e-08,0.0,0.0,0.0,8.999999999999999e-08,0.0,0.0,0.0,8.999999999999999e-08
1538769423.9930146,1158,1538769423,992284480,base_link,0.23781167750352958,0.22892662928088212,-0.7607539928569778,-0.5588305349577959,1.0,0.0,0.0,0.0,1.0,0.0,0.0,0.0,1.0,-0.2792748808860779,-0.18792077898979181,0.38877537846565247,1.2184696791468346e-07,0.0,0.0,0.0,1.2184696791468346e-07,0.0,0.0,0.0,1.2184696791468346e-07,-0.40207265000000003,0.009806650000001261,10.2969825,8.999999999999999e-08,0.0,0.0,0.0,8.999999999999999e-08,0.0,0.0,0.0,8.999999999999999e-08
1538769424.4080286,1159,1538769424,407415008,base_link,0.23834427031546698,0.2701303154101425,-0.8012429728771218,-0.4777356171767354,1.0,0.0,0.0,0.0,1.0,0.0,0.0,0.0,1.0,-0.20337729156017303,-0.2767446637153625,0.30931070446968084,1.2184696791468346e-07,0.0,0.0,0.0,1.2184696791468346e-07,0.0,0.0,0.0,1.2184696791468346e-07,-0.1176798,0.2941995000000015,12.26811915,8.999999999999999e-08,0.0,0.0,0.0,8.999999999999999e-08,0.0,0.0,0.0,8.999999999999999e-08
1538769424.7735994,1160,1538769424,773366464,base_link,0.2105931663241327,0.2985775019338602,-0.8378020392596768,-0.40569660665186635,1.0,0.0,0.0,0.0,1.0,0.0,0.0,0.0,1.0,-0.05152156949043274,-0.3877065479755401,0.3208037912845612,1.2184696791468346e-07,0.0,0.0,0.0,1.2184696791468346e-07,0.0,0.0,0.0,1.2184696791468346e-07,0.0784532,-0.039226599999998286,14.0038962,8.999999999999999e-08,0.0,0.0,0.0,8.999999999999999e-08,0.0,0.0,0.0,8.999999999999999e-08
1538769425.1841495,1161,1538769425,183614016,base_link,0.16783051334271598,0.3396693586480842,-0.8730039772557787,-0.3071183831722083,1.0,0.0,0.0,0.0,1.0,0.0,0.0,0.0,1.0,-0.09060999006032944,-0.41944566369056696,0.387438714504242,1.2184696791468346e-07,0.0,0.0,0.0,1.2184696791468346e-07,0.0,0.0,0.0,1.2184696791468346e-07,0.38245935,0.0392266000000019,15.5337336,8.999999999999999e-08,0.0,0.0,0.0,8.999999999999999e-08,0.0,0.0,0.0,8.999999999999999e-08
1538769425.7575877,1162,1538769425,752067520,base_link,0.09052542624914332,0.3775632669739859,-0.90821778568701,-0.15617804069755054,1.0,0.0,0.0,0.0,1.0,0.0,0.0,0.0,1.0,0.006501196883618832,-0.4801721274852752,0.32881212234497076,1.2184696791468346e-07,0.0,0.0,0.0,1.2184696791468346e-07,0.0,0.0,0.0,1.2184696791468346e-07,0.9414384,0.3138128000000022,18.4168887,8.999999999999999e-08,0.0,0.0,0.0,8.999999999999999e-08,0.0,0.0,0.0,8.999999999999999e-08
1538769426.1617837,1163,1538769426,161493344,base_link,0.02348758995314443,0.37549935796685285,-0.9246919675748664,-0.05825229941553205,1.0,0.0,0.0,0.0,1.0,0.0,0.0,0.0,1.0,0.29358258843421936,-0.4559501111507415,0.3304924368858338,1.2184696791468346e-07,0.0,0.0,0.0,1.2184696791468346e-07,0.0,0.0,0.0,1.2184696791468346e-07,0.93163175,-0.0392265999999981,15.5141203,8.999999999999999e-08,0.0,0.0,0.0,8.999999999999999e-08,0.0,0.0,0.0,8.999999999999999e-08
1538769426.4739633,1164,1538769426,473636832,base_link,-0.02510108233037547,0.3083654921864228,-0.9505208207655135,0.0281216675487715,1.0,0.0,0.0,0.0,1.0,0.0,0.0,0.0,1.0,0.5519621968269348,-0.34733146429061884,0.35930743813514715,1.2184696791468346e-07,0.0,0.0,0.0,1.2184696791468346e-07,0.0,0.0,0.0,1.2184696791468346e-07,0.6864655,0.42168595000000186,15.4552804,8.999999999999999e-08,0.0,0.0,0.0,8.999999999999999e-08,0.0,0.0,0.0,8.999999999999999e-08
1538769426.9224198,1165,1538769426,922144608,base_link,-0.0635179249359239,0.17153524574053336,-0.9780819774738168,0.0994825513418169,1.0,0.0,0.0,0.0,1.0,0.0,0.0,0.0,1.0,0.8567487597465515,-0.18432815372943875,0.17633557319641116,1.2184696791468346e-07,0.0,0.0,0.0,1.2184696791468346e-07,0.0,0.0,0.0,1.2184696791468346e-07,0.2941995,-0.019613299999998085,15.6318001,8.999999999999999e-08,0.0,0.0,0.0,8.999999999999999e-08,0.0,0.0,0.0,8.999999999999999e-08
1538769427.383121,1166,1538769427,381812320,base_link,-0.05946836456539721,-0.008311276495954955,-0.9863943365635292,0.15303806420077265,1.0,0.0,0.0,0.0,1.0,0.0,0.0,0.0,1.0,0.6394311785697937,0.021287195384502414,0.0279293842613697,1.2184696791468346e-07,0.0,0.0,0.0,1.2184696791468346e-07,0.0,0.0,0.0,1.2184696791468346e-07,-0.1765197,0.8531785500000013,10.3754357,8.999999999999999e-08,0.0,0.0,0.0,8.999999999999999e-08,0.0,0.0,0.0,8.999999999999999e-08
1538769427.7302597,1167,1538769427,729873248,base_link,-0.04272739576659706,-0.09052261892745758,-0.9840855018164171,0.1468187666078477,1.0,0.0,0.0,0.0,1.0,0.0,0.0,0.0,1.0,0.37450727820396423,-0.009711876511573797,-0.04195106029510498,1.2184696791468346e-07,0.0,0.0,0.0,1.2184696791468346e-07,0.0,0.0,0.0,1.2184696791468346e-07,-0.2353596,0.13729310000000114,9.20844435,8.999999999999999e-08,0.0,0.0,0.0,8.999999999999999e-08,0.0,0.0,0.0,8.999999999999999e-08
1538769428.3614624,1168,1538769428,361133056,base_link,-0.01866211990754891,-0.1071751426201542,-0.984064939633194,0.1406463958643236,1.0,0.0,0.0,0.0,1.0,0.0,0.0,0.0,1.0,-0.055991895496845245,0.11347935348749158,-0.1891105026006699,1.2184696791468346e-07,0.0,0.0,0.0,1.2184696791468346e-07,0.0,0.0,0.0,1.2184696791468346e-07,-0.2745862,0.637432250000001,8.4729456,8.999999999999999e-08,0.0,0.0,0.0,8.999999999999999e-08,0.0,0.0,0.0,8.999999999999999e-08
1538769428.6625407,1169,1538769428,662272384,base_link,-0.00028303927176151597,-0.1024026584075685,-0.9878972561671528,0.11650161671515191,1.0,0.0,0.0,0.0,1.0,0.0,0.0,0.0,1.0,-0.002134832553565502,0.09910761564970015,-0.10133586078882219,1.2184696791468346e-07,0.0,0.0,0.0,1.2184696791468346e-07,0.0,0.0,0.0,1.2184696791468346e-07,-0.2353596,0.17651970000000095,7.7668668,8.999999999999999e-08,0.0,0.0,0.0,8.999999999999999e-08,0.0,0.0,0.0,8.999999999999999e-08
1538769428.9789972,1170,1538769428,977008896,base_link,0.00847655371981945,-0.0763714798319485,-0.990727679848622,0.11204556879716177,1.0,0.0,0.0,0.0,1.0,0.0,0.0,0.0,1.0,0.8098267316818237,0.07647007703781127,-0.11622134596109392,1.2184696791468346e-07,0.0,0.0,0.0,1.2184696791468346e-07,0.0,0.0,0.0,1.2184696791468346e-07,-0.26477955,0.147099750000001,8.2768126,8.999999999999999e-08,0.0,0.0,0.0,8.999999999999999e-08,0.0,0.0,0.0,8.999999999999999e-08
1538769429.3123858,1171,1538769429,312065088,base_link,0.03559438857877065,-0.219768876452272,-0.9705981729809474,0.09150883591575508,1.0,0.0,0.0,0.0,1.0,0.0,0.0,0.0,1.0,0.7206064462661743,0.001512094167992463,-0.07726699858903885,1.2184696791468346e-07,0.0,0.0,0.0,1.2184696791468346e-07,0.0,0.0,0.0,1.2184696791468346e-07,-0.2745862,0.22555295000000108,8.7671451,8.999999999999999e-08,0.0,0.0,0.0,8.999999999999999e-08,0.0,0.0,0.0,8.999999999999999e-08
1538769429.7055542,1172,1538769429,705172000,base_link,0.038931271776520136,-0.2968165546054747,-0.9521579858962524,0.061477303811975074,1.0,0.0,0.0,0.0,1.0,0.0,0.0,0.0,1.0,0.18328537046909332,-0.08714448660612109,-0.2156783789396286,1.2184696791468346e-07,0.0,0.0,0.0,1.2184696791468346e-07,0.0,0.0,0.0,1.2184696791468346e-07,-0.0980665,1.0395049000000012,9.30651085,8.999999999999999e-08,0.0,0.0,0.0,8.999999999999999e-08,0.0,0.0,0.0,8.999999999999999e-08
1538769430.1979861,1173,1538769430,197677248,base_link,0.027173886489325037,-0.3420949522286966,-0.9387675905027036,-0.03079017009467928,1.0,0.0,0.0,0.0,1.0,0.0,0.0,0.0,1.0,0.13137750327587128,-0.24315287172794345,-0.3000573813915252,1.2184696791468346e-07,0.0,0.0,0.0,1.2184696791468346e-07,0.0,0.0,0.0,1.2184696791468346e-07,0.2549729,0.6570455500000014,11.434553900000001,8.999999999999999e-08,0.0,0.0,0.0,8.999999999999999e-08,0.0,0.0,0.0,8.999999999999999e-08
1538769430.4764614,1174,1538769430,476042176,base_link,0.004338989873777708,-0.34849910905754605,-0.933586446780114,-0.08334200946373267,1.0,0.0,0.0,0.0,1.0,0.0,0.0,0.0,1.0,0.06727989763021469,-0.3004203140735627,-0.32189983129501337,1.2184696791468346e-07,0.0,0.0,0.0,1.2184696791468346e-07,0.0,0.0,0.0,1.2184696791468346e-07,0.5687857000000001,0.8335652500000017,13.32723735,8.999999999999999e-08,0.0,0.0,0.0,8.999999999999999e-08,0.0,0.0,0.0,8.999999999999999e-08
1538769430.814943,1175,1538769430,814750080,base_link,-0.0267693452351472,-0.34836070335384656,-0.9246934343820588,-0.15122921320038535,1.0,0.0,0.0,0.0,1.0,0.0,0.0,0.0,1.0,0.008429322391748428,-0.347052276134491,-0.30369737744331354,1.2184696791468346e-07,0.0,0.0,0.0,1.2184696791468346e-07,0.0,0.0,0.0,1.2184696791468346e-07,0.7256921000000001,0.7453054000000017,13.856796450000001,8.999999999999999e-08,0.0,0.0,0.0,8.999999999999999e-08,0.0,0.0,0.0,8.999999999999999e-08
1538769431.2016351,1176,1538769431,199964704,base_link,-0.0729388906002902,-0.3546895792109905,-0.9050416515138757,-0.22310273342602838,1.0,0.0,0.0,0.0,1.0,0.0,0.0,0.0,1.0,0.10272111743688583,-0.3630692660808564,-0.29931294918060297,1.2184696791468346e-07,0.0,0.0,0.0,1.2184696791468346e-07,0.0,0.0,0.0,1.2184696791468346e-07,1.04931155,1.137571400000002,15.03359445,8.999999999999999e-08,0.0,0.0,0.0,8.999999999999999e-08,0.0,0.0,0.0,8.999999999999999e-08
1538769431.660808,1177,1538769431,660539104,base_link,-0.12109256812294089,-0.3450668849276877,-0.8705517057582419,-0.329249392517447,1.0,0.0,0.0,0.0,1.0,0.0,0.0,0.0,1.0,0.016195595264434814,-0.3686180710792542,-0.32111349701881403,1.2184696791468346e-07,0.0,0.0,0.0,1.2184696791468346e-07,0.0,0.0,0.0,1.2184696791468346e-07,1.06892485,0.5393657500000019,14.85707475,8.999999999999999e-08,0.0,0.0,0.0,8.999999999999999e-08,0.0,0.0,0.0,8.999999999999999e-08
1538769432.0615652,1178,1538769432,60776256,base_link,-0.16713834722020157,-0.3289097238550556,-0.8353483757473155,-0.4075245484365474,1.0,0.0,0.0,0.0,1.0,0.0,0.0,0.0,1.0,-0.03177907317876816,-0.38181540369987493,-0.2649419009685516,1.2184696791468346e-07,0.0,0.0,0.0,1.2184696791468346e-07,0.0,0.0,0.0,1.2184696791468346e-07,1.08853815,0.8825985000000018,14.6707484,8.999999999999999e-08,0.0,0.0,0.0,8.999999999999999e-08,0.0,0.0,0.0,8.999999999999999e-08
1538769432.4541001,1179,1538769432,453757216,base_link,-0.21285525336856959,-0.3045066560754812,-0.7960216098783931,-0.47782625935139,1.0,0.0,0.0,0.0,1.0,0.0,0.0,0.0,1.0,-0.05671750009059906,-0.3794026672840119,-0.29458805918693537,1.2184696791468346e-07,0.0,0.0,0.0,1.2184696791468346e-07,0.0,0.0,0.0,1.2184696791468346e-07,1.02969825,1.0493115500000019,14.9257213,8.999999999999999e-08,0.0,0.0,0.0,8.999999999999999e-08,0.0,0.0,0.0,8.999999999999999e-08
1538769432.7963943,1180,1538769432,793258720,base_link,-0.24135972214900206,-0.2876204043298466,-0.7561429671064298,-0.5359736941611744,1.0,0.0,0.0,0.0,1.0,0.0,0.0,0.0,1.0,0.023311594501137733,-0.3302341997623444,-0.29788982868194575,1.2184696791468346e-07,0.0,0.0,0.0,1.2184696791468346e-07,0.0,0.0,0.0,1.2184696791468346e-07,0.93163175,0.9218251000000018,14.2588691,8.999999999999999e-08,0.0,0.0,0.0,8.999999999999999e-08,0.0,0.0,0.0,8.999999999999999e-08
1538769433.2748318,1181,1538769433,274540832,base_link,-0.2756704012786075,-0.2596882744781135,-0.6916070735906795,-0.615018280798878,1.0,0.0,0.0,0.0,1.0,0.0,0.0,0.0,1.0,-0.0464513823390007,-0.260798454284668,-0.348612368106842,1.2184696791468346e-07,0.0,0.0,0.0,1.2184696791468346e-07,0.0,0.0,0.0,1.2184696791468346e-07,0.7256921000000001,1.2258312500000017,14.1019627,8.999999999999999e-08,0.0,0.0,0.0,8.999999999999999e-08,0.0,0.0,0.0,8.999999999999999e-08
1538769433.712049,1182,1538769433,711769728,base_link,-0.2883209962074916,-0.24046227615991883,-0.6261177161510161,-0.6833926414673678,1.0,0.0,0.0,0.0,1.0,0.0,0.0,0.0,1.0,-0.09415487200021744,-0.24263796210289004,-0.3266866505146026,1.2184696791468346e-07,0.0,0.0,0.0,1.2184696791468346e-07,0.0,0.0,0.0,1.2184696791468346e-07,0.36284605000000003,0.9806650000000012,10.67944185,8.999999999999999e-08,0.0,0.0,0.0,8.999999999999999e-08,0.0,0.0,0.0,8.999999999999999e-08
1538769434.0441983,1183,1538769434,43311808,base_link,-0.29448292784445956,-0.22424181053409156,-0.5803462988061348,-0.725392024410641,1.0,0.0,0.0,0.0,1.0,0.0,0.0,0.0,1.0,-0.07387904822826385,-0.25344192981719976,-0.3161859810352325,1.2184696791468346e-07,0.0,0.0,0.0,1.2184696791468346e-07,0.0,0.0,0.0,1.2184696791468346e-07,0.2941995,0.8825985000000014,11.77778665,8.999999999999999e-08,0.0,0.0,0.0,8.999999999999999e-08,0.0,0.0,0.0,8.999999999999999e-08
1538769434.3378873,1184,1538769434,335623968,base_link,-0.30441979140963077,-0.21034685364253938,-0.5271841767204559,-0.764957276961515,1.0,0.0,0.0,0.0,1.0,0.0,0.0,0.0,1.0,0.024984680116176605,-0.25661799311637884,-0.3278690576553344,1.2184696791468346e-07,0.0,0.0,0.0,1.2184696791468346e-07,0.0,0.0,0.0,1.2184696791468346e-07,0.14709975,0.6570455500000014,11.346294050000001,8.999999999999999e-08,0.0,0.0,0.0,8.999999999999999e-08,0.0,0.0,0.0,8.999999999999999e-08
1538769434.7834258,1185,1538769434,783115264,base_link,-0.3265692140411924,-0.18743130286469853,-0.45710200319197547,-0.8057790105387722,1.0,0.0,0.0,0.0,1.0,0.0,0.0,0.0,1.0,0.03802378848195076,-0.26770046353340154,-0.2817466855049133,1.2184696791468346e-07,0.0,0.0,0.0,1.2184696791468346e-07,0.0,0.0,0.0,1.2184696791468346e-07,0.1569064,0.8433719000000015,12.20927925,8.999999999999999e-08,0.0,0.0,0.0,8.999999999999999e-08,0.0,0.0,0.0,8.999999999999999e-08
1538769435.1381621,1186,1538769435,137838816,base_link,-0.34013809030955305,-0.17151258994938454,-0.3926216113681508,-0.837100819075039,1.0,0.0,0.0,0.0,1.0,0.0,0.0,0.0,1.0,0.07677147537469864,-0.2558757960796357,-0.38164600729942316,1.2184696791468346e-07,0.0,0.0,0.0,1.2184696791468346e-07,0.0,0.0,0.0,1.2184696791468346e-07,0.1569064,0.9904716500000014,11.24822755,8.999999999999999e-08,0.0,0.0,0.0,8.999999999999999e-08,0.0,0.0,0.0,8.999999999999999e-08
1538769435.6268654,1187,1538769435,626178752,base_link,-0.35911182780793854,-0.14587676072757308,-0.29125933611854743,-0.8746008603539417,1.0,0.0,0.0,0.0,1.0,0.0,0.0,0.0,1.0,-0.06355732679367065,-0.32142060995101934,-0.36881092190742487,1.2184696791468346e-07,0.0,0.0,0.0,1.2184696791468346e-07,0.0,0.0,0.0,1.2184696791468346e-07,0.24516625,0.9806650000000015,11.8268199,8.999999999999999e-08,0.0,0.0,0.0,8.999999999999999e-08,0.0,0.0,0.0,8.999999999999999e-08
1538769435.9675112,1188,1538769435,967141152,base_link,-0.37388036761107896,-0.11633937808758728,-0.2077956732045157,-0.8963813797813294,1.0,0.0,0.0,0.0,1.0,0.0,0.0,0.0,1.0,-0.06823592633008957,-0.3774900138378144,-0.3104220330715179,1.2184696791468346e-07,0.0,0.0,0.0,1.2184696791468346e-07,0.0,0.0,0.0,1.2184696791468346e-07,0.4118793,0.7256921000000017,13.2193642,8.999999999999999e-08,0.0,0.0,0.0,8.999999999999999e-08,0.0,0.0,0.0,8.999999999999999e-08
1538769436.44037,1189,1538769436,438026848,base_link,-0.3703563448549965,-0.06349733286587342,-0.11175342002060445,-0.9199540421446419,1.0,0.0,0.0,0.0,1.0,0.0,0.0,0.0,1.0,-0.02935197576880455,-0.3640717267990113,-0.3925212621688842,1.2184696791468346e-07,0.0,0.0,0.0,1.2184696791468346e-07,0.0,0.0,0.0,1.2184696791468346e-07,0.5491724,0.9806650000000018,14.40596885,8.999999999999999e-08,0.0,0.0,0.0,8.999999999999999e-08,0.0,0.0,0.0,8.999999999999999e-08
1538769436.8665595,1190,1538769436,865033920,base_link,-0.3698499484652139,-0.016310582366113685,-0.0071774296257965395,-0.9289205913462806,1.0,0.0,0.0,0.0,1.0,0.0,0.0,0.0,1.0,-0.11996528506278992,-0.3991361558437348,-0.268225610256195,1.2184696791468346e-07,0.0,0.0,0.0,1.2184696791468346e-07,0.0,0.0,0.0,1.2184696791468346e-07,0.46091255,0.7943386500000018,14.709975,8.999999999999999e-08,0.0,0.0,0.0,8.999999999999999e-08,0.0,0.0,0.0,8.999999999999999e-08
1538769437.268824,1191,1538769437,268607200,base_link,-0.35032734661005605,0.02798479868943723,0.07865681055262652,-0.9328990874757878,1.0,0.0,0.0,0.0,1.0,0.0,0.0,0.0,1.0,-0.18474081158638,-0.35114741325378424,-0.3893857300281524,1.2184696791468346e-07,0.0,0.0,0.0,1.2184696791468346e-07,0.0,0.0,0.0,1.2184696791468346e-07,0.51975245,0.9512450500000017,14.121576000000001,8.999999999999999e-08,0.0,0.0,0.0,8.999999999999999e-08,0.0,0.0,0.0,8.999999999999999e-08
1538769437.7235084,1192,1538769437,723109696,base_link,-0.317398439987401,0.06721125129153636,0.17634123307810717,-0.9293248342263769,1.0,0.0,0.0,0.0,1.0,0.0,0.0,0.0,1.0,-0.12632238864898682,-0.3538696765899659,-0.24090388417243952,1.2184696791468346e-07,0.0,0.0,0.0,1.2184696791468346e-07,0.0,0.0,0.0,1.2184696791468346e-07,0.42168595,0.4903325000000017,14.4353888,8.999999999999999e-08,0.0,0.0,0.0,8.999999999999999e-08,0.0,0.0,0.0,8.999999999999999e-08
1538769438.107191,1193,1538769438,105442880,base_link,-0.3094653904244058,0.09794266666584964,0.24248714773016156,-0.9142419752787241,1.0,0.0,0.0,0.0,1.0,0.0,0.0,0.0,1.0,0.085588738322258,-0.2726555168628693,-0.30963397026062006,1.2184696791468346e-07,0.0,0.0,0.0,1.2184696791468346e-07,0.0,0.0,0.0,1.2184696791468346e-07,0.08825985,0.6080123000000016,13.28801075,8.999999999999999e-08,0.0,0.0,0.0,8.999999999999999e-08,0.0,0.0,0.0,8.999999999999999e-08
1538769438.4219875,1194,1538769438,421435744,base_link,-0.3287333353354129,0.12791137553098475,0.2892561652300312,-0.8898898499957414,1.0,0.0,0.0,0.0,1.0,0.0,0.0,0.0,1.0,0.19766727089881897,-0.27062845230102545,-0.260153979063034,1.2184696791468346e-07,0.0,0.0,0.0,1.2184696791468346e-07,0.0,0.0,0.0,1.2184696791468346e-07,0.0392266,0.44129925000000153,12.2975391,8.999999999999999e-08,0.0,0.0,0.0,8.999999999999999e-08,0.0,0.0,0.0,8.999999999999999e-08
1538769438.7568798,1195,1538769438,756569856,base_link,-0.3368038516298091,0.16197202439643646,0.33881525664066625,-0.8634422104042432,1.0,0.0,0.0,0.0,1.0,0.0,0.0,0.0,1.0,-0.012981503270566463,-0.2568828463554383,-0.29409477114677424,1.2184696791468346e-07,0.0,0.0,0.0,1.2184696791468346e-07,0.0,0.0,0.0,1.2184696791468346e-07,0.26477955,1.1277647500000016,13.01342455,8.999999999999999e-08,0.0,0.0,0.0,8.999999999999999e-08,0.0,0.0,0.0,8.999999999999999e-08
1538769439.023815,1196,1538769439,23149600,base_link,-0.3313945093149498,0.1724295397907292,0.38855091880392534,-0.8423027463448557,1.0,0.0,0.0,0.0,1.0,0.0,0.0,0.0,1.0,-0.052855465561151505,-0.25619193911552435,-0.3608964383602142,1.2184696791468346e-07,0.0,0.0,0.0,1.2184696791468346e-07,0.0,0.0,0.0,1.2184696791468346e-07,0.24516625,0.7943386500000016,12.28773245,8.999999999999999e-08,0.0,0.0,0.0,8.999999999999999e-08,0.0,0.0,0.0,8.999999999999999e-08
1538769439.3730552,1197,1538769439,372731712,base_link,-0.20380632261158915,0.13237519156628644,0.4622762090885239,-0.8527839691458048,1.0,0.0,0.0,0.0,1.0,0.0,0.0,0.0,1.0,-1.1755070686340332,-0.1625470817089081,-0.20223256945610044,1.2184696791468346e-07,0.0,0.0,0.0,1.2184696791468346e-07,0.0,0.0,0.0,1.2184696791468346e-07,0.28439285000000003,0.7060788000000016,12.69961175,8.999999999999999e-08,0.0,0.0,0.0,8.999999999999999e-08,0.0,0.0,0.0,8.999999999999999e-08
1538769439.9761593,1198,1538769439,975774528,base_link,0.030975220486511818,0.009307252921227784,0.5119420038317559,-0.8584109129499687,1.0,0.0,0.0,0.0,1.0,0.0,0.0,0.0,1.0,-0.5915858149528503,0.012467967346310607,-0.06789633631706238,1.2184696791468346e-07,0.0,0.0,0.0,1.2184696791468346e-07,0.0,0.0,0.0,1.2184696791468346e-07,-0.22555295,0.42168595000000125,10.44408225,8.999999999999999e-08,0.0,0.0,0.0,8.999999999999999e-08,0.0,0.0,0.0,8.999999999999999e-08
1538769440.3728254,1199,1538769440,372525280,base_link,0.09788726144508096,-0.034423436951275935,0.5102749596438914,-0.8537286317066268,1.0,0.0,0.0,0.0,1.0,0.0,0.0,0.0,1.0,-0.2299795299768448,-0.021236317232251153,0.09995899349451065,1.2184696791468346e-07,0.0,0.0,0.0,1.2184696791468346e-07,0.0,0.0,0.0,1.2184696791468346e-07,-0.2157463,0.1274864500000012,9.71839015,8.999999999999999e-08,0.0,0.0,0.0,8.999999999999999e-08,0.0,0.0,0.0,8.999999999999999e-08
1538769440.861158,1200,1538769440,860787680,base_link,0.13520425942793848,-0.06016793143980535,0.47547530233412016,-0.8671925190689058,1.0,0.0,0.0,0.0,1.0,0.0,0.0,0.0,1.0,-0.13318265974521637,0.013491552323102968,0.14733120799064636,1.2184696791468346e-07,0.0,0.0,0.0,1.2184696791468346e-07,0.0,0.0,0.0,1.2184696791468346e-07,-0.10787315,0.2451662500000011,9.16921775,8.999999999999999e-08,0.0,0.0,0.0,8.999999999999999e-08,0.0,0.0,0.0,8.999999999999999e-08
1538769441.2169323,1201,1538769441,216497312,base_link,0.1269905329460742,-0.06320088952984415,0.4511706468319012,-0.8810925601445015,1.0,0.0,0.0,0.0,1.0,0.0,0.0,0.0,1.0,0.1623382717370987,0.015146114863455318,0.18030844628810883,1.2184696791468346e-07,0.0,0.0,0.0,1.2184696791468346e-07,0.0,0.0,0.0,1.2184696791468346e-07,-0.2157463,0.2059396500000011,8.9828914,8.999999999999999e-08,0.0,0.0,0.0,8.999999999999999e-08,0.0,0.0,0.0,8.999999999999999e-08
1538769441.6786878,1202,1538769441,678136448,base_link,0.09281337664109839,-0.05506412171679557,0.4189672004331416,-0.9015653634525069,1.0,0.0,0.0,0.0,1.0,0.0,0.0,0.0,1.0,0.19210462272167206,0.009982750751078148,0.15834161639213562,1.2184696791468346e-07,0.0,0.0,0.0,1.2184696791468346e-07,0.0,0.0,0.0,1.2184696791468346e-07,-0.14709975,0.41187930000000117,9.56148375,8.999999999999999e-08,0.0,0.0,0.0,8.999999999999999e-08,0.0,0.0,0.0,8.999999999999999e-08
1538769441.987887,1203,1538769441,987412256,base_link,0.061180416589264486,-0.045307528648164376,0.4062808017540617,-0.910571301216899,1.0,0.0,0.0,0.0,1.0,0.0,0.0,0.0,1.0,0.2832229733467102,0.023021992295980464,0.07872756570577621,1.2184696791468346e-07,0.0,0.0,0.0,1.2184696791468346e-07,0.0,0.0,0.0,1.2184696791468346e-07,-0.2745862,0.1667130500000012,9.551677100000001,8.999999999999999e-08,0.0,0.0,0.0,8.999999999999999e-08,0.0,0.0,0.0,8.999999999999999e-08
1538769442.4971402,1204,1538769442,494374464,base_link,0.01065321956581055,-0.029830023386701553,0.3826731154907874,-0.9233406550662686,1.0,0.0,0.0,0.0,1.0,0.0,0.0,0.0,1.0,0.14580130577087402,0.021048262715339664,0.041689708828926086,1.2184696791468346e-07,0.0,0.0,0.0,1.2184696791468346e-07,0.0,0.0,0.0,1.2184696791468346e-07,-0.1765197,0.4805258500000012,9.56148375,8.999999999999999e-08,0.0,0.0,0.0,8.999999999999999e-08,0.0,0.0,0.0,8.999999999999999e-08
1538769442.8719978,1205,1538769442,871658592,base_link,-0.013221143464291232,-0.023164010314826792,0.3829967573678496,-0.9233645617183623,1.0,0.0,0.0,0.0,1.0,0.0,0.0,0.0,1.0,0.10035226494073868,0.017850073054432865,-0.024899389594793323,1.2184696791468346e-07,0.0,0.0,0.0,1.2184696791468346e-07,0.0,0.0,0.0,1.2184696791468346e-07,-0.12748645,0.5001391500000012,9.91452315,8.999999999999999e-08,0.0,0.0,0.0,8.999999999999999e-08,0.0,0.0,0.0,8.999999999999999e-08
1538769443.130947,1206,1538769443,130457696,base_link,-0.02807707774443837,-0.018600667278868777,0.38668372444770255,-0.9215971951614039,1.0,0.0,0.0,0.0,1.0,0.0,0.0,0.0,1.0,0.14854075014591217,-0.004366573411971331,-0.003145300550386309,1.2184696791468346e-07,0.0,0.0,0.0,1.2184696791468346e-07,0.0,0.0,0.0,1.2184696791468346e-07,-0.06864655,0.25497290000000117,9.34573745,8.999999999999999e-08,0.0,0.0,0.0,8.999999999999999e-08,0.0,0.0,0.0,8.999999999999999e-08
1538769443.6867454,1207,1538769443,683601248,base_link,-0.04311540070124767,-0.00033610273547967035,0.37716206221198,-0.9251430851956517,1.0,0.0,0.0,0.0,1.0,0.0,0.0,0.0,1.0,-0.010852217674255371,-0.04683158174157143,-0.04194928333163261,1.2184696791468346e-07,0.0,0.0,0.0,1.2184696791468346e-07,0.0,0.0,0.0,1.2184696791468346e-07,-0.0196133,0.7649187000000014,11.81701325,8.999999999999999e-08,0.0,0.0,0.0,8.999999999999999e-08,0.0,0.0,0.0,8.999999999999999e-08
1538769444.1053069,1208,1538769444,104778432,base_link,-0.03842441285833868,0.003535001794135667,0.3906616666980112,-0.9197252472513405,1.0,0.0,0.0,0.0,1.0,0.0,0.0,0.0,1.0,0.11021432280540466,-0.024342186748981483,-0.06951142102479935,1.2184696791468346e-07,0.0,0.0,0.0,1.2184696791468346e-07,0.0,0.0,0.0,1.2184696791468346e-07,-0.1176798,0.36284605000000125,10.1596894,8.999999999999999e-08,0.0,0.0,0.0,8.999999999999999e-08,0.0,0.0,0.0,8.999999999999999e-08
1538769444.5360484,1209,1538769444,535143616,base_link,-0.035997526441306056,0.012783088334843014,0.39619894220299645,-0.9173697013418078,1.0,0.0,0.0,0.0,1.0,0.0,0.0,0.0,1.0,-0.03305421769618988,-0.04071161150932312,0.009227814152836805,1.2184696791468346e-07,0.0,0.0,0.0,1.2184696791468346e-07,0.0,0.0,0.0,1.2184696791468346e-07,0.02941995,0.19613300000000133,10.8461549,8.999999999999999e-08,0.0,0.0,0.0,8.999999999999999e-08,0.0,0.0,0.0,8.999999999999999e-08
1538769444.8822093,1210,1538769444,881738688,base_link,-0.020484599397077738,0.008770078335689074,0.3904270636926547,-0.9203641533924813,1.0,0.0,0.0,0.0,1.0,0.0,0.0,0.0,1.0,-0.10163437575101852,-0.004019599407911299,0.014605242758989334,1.2184696791468346e-07,0.0,0.0,0.0,1.2184696791468346e-07,0.0,0.0,0.0,1.2184696791468346e-07,0.0392266,0.4511059000000013,9.97336305,8.999999999999999e-08,0.0,0.0,0.0,8.999999999999999e-08,0.0,0.0,0.0,8.999999999999999e-08
1538769445.3755631,1211,1538769445,374990912,base_link,-0.012905074413626963,0.004628269194118881,0.39123431807630493,-0.9201889732756061,1.0,0.0,0.0,0.0,1.0,0.0,0.0,0.0,1.0,-0.009217025712132454,0.009022420272231104,0.02060190960764885,1.2184696791468346e-07,0.0,0.0,0.0,1.2184696791468346e-07,0.0,0.0,0.0,1.2184696791468346e-07,0.0,0.39226600000000117,9.67916355,8.999999999999999e-08,0.0,0.0,0.0,8.999999999999999e-08,0.0,0.0,0.0,8.999999999999999e-08
1538769445.7616336,1212,1538769445,761384992,base_link,-0.02003671488849045,0.007142092511406896,0.38305798973278754,-0.923479343067787,1.0,0.0,0.0,0.0,1.0,0.0,0.0,0.0,1.0,0.11624336242675781,-0.0025737653486430576,0.055342450737953186,1.2184696791468346e-07,0.0,0.0,0.0,1.2184696791468346e-07,0.0,0.0,0.0,1.2184696791468346e-07,0.06864655,0.5393657500000013,10.395049,8.999999999999999e-08,0.0,0.0,0.0,8.999999999999999e-08,0.0,0.0,0.0,8.999999999999999e-08
1538769446.1383665,1213,1538769446,137954336,base_link,-0.020604293459776327,0.003824420495472872,0.3793005015922435,-0.9250361973408228,1.0,0.0,0.0,0.0,1.0,0.0,0.0,0.0,1.0,-0.004650400020182133,0.02741839736700057,-0.07488439232110977,1.2184696791468346e-07,0.0,0.0,0.0,1.2184696791468346e-07,0.0,0.0,0.0,1.2184696791468346e-07,0.0784532,0.6668522000000011,8.83579165,8.999999999999999e-08,0.0,0.0,0.0,8.999999999999999e-08,0.0,0.0,0.0,8.999999999999999e-08
1538769446.563094,1214,1538769446,562564672,base_link,-0.01848915290022117,-0.0015751454607721006,0.39066345888258563,-0.9203465282358074,1.0,0.0,0.0,0.0,1.0,0.0,0.0,0.0,1.0,-0.027959980070590973,0.007147799246013163,-0.013865856453776361,1.2184696791468346e-07,0.0,0.0,0.0,1.2184696791468346e-07,0.0,0.0,0.0,1.2184696791468346e-07,0.08825985,0.1667130500000012,9.67916355,8.999999999999999e-08,0.0,0.0,0.0,8.999999999999999e-08,0.0,0.0,0.0,8.999999999999999e-08
1538769446.911585,1215,1538769446,909808256,base_link,-0.021953607846481718,0.0003644002136354271,0.38174847533648665,-0.9240054155107938,1.0,0.0,0.0,0.0,1.0,0.0,0.0,0.0,1.0,-0.018835270777344704,-0.021826587617397298,0.09390096366405487,1.2184696791468346e-07,0.0,0.0,0.0,1.2184696791468346e-07,0.0,0.0,0.0,1.2184696791468346e-07,0.0980665,0.4412992500000013,10.6304086,8.999999999999999e-08,0.0,0.0,0.0,8.999999999999999e-08,0.0,0.0,0.0,8.999999999999999e-08
1538769447.1978428,1216,1538769447,197319360,base_link,-0.013714316505577629,0.0017879360825876957,0.3695463921901957,-0.9291093503062811,1.0,0.0,0.0,0.0,1.0,0.0,0.0,0.0,1.0,-0.05403180047869682,-0.02923904359340667,0.0700894147157669,1.2184696791468346e-07,0.0,0.0,0.0,1.2184696791468346e-07,0.0,0.0,0.0,1.2184696791468346e-07,0.18632635,0.6080123000000013,10.42446895,8.999999999999999e-08,0.0,0.0,0.0,8.999999999999999e-08,0.0,0.0,0.0,8.999999999999999e-08
1538769447.6768062,1217,1538769447,671278240,base_link,-0.015436492305582993,0.007696388136914024,0.3722513984343241,-0.9279716464842209,1.0,0.0,0.0,0.0,1.0,0.0,0.0,0.0,1.0,0.09891225397586823,-0.02769911102950574,-0.07708007842302322,1.2184696791468346e-07,0.0,0.0,0.0,1.2184696791468346e-07,0.0,0.0,0.0,1.2184696791468346e-07,0.1372931,0.3922660000000013,10.4146623,8.999999999999999e-08,0.0,0.0,0.0,8.999999999999999e-08,0.0,0.0,0.0,8.999999999999999e-08
1538769448.0802896,1218,1538769448,79653248,base_link,-0.026804691658243535,0.018548987163581762,0.374094782642673,-0.9268174238650473,1.0,0.0,0.0,0.0,1.0,0.0,0.0,0.0,1.0,0.06680087745189667,-0.038163144141435616,0.03171858191490174,1.2184696791468346e-07,0.0,0.0,0.0,1.2184696791468346e-07,0.0,0.0,0.0,1.2184696791468346e-07,0.2157463,0.3040061500000013,10.52253545,8.999999999999999e-08,0.0,0.0,0.0,8.999999999999999e-08,0.0,0.0,0.0,8.999999999999999e-08
1538769448.5456707,1219,1538769448,544972480,base_link,-0.03508374156644162,0.02641418309510852,0.3668402851377119,-0.9292468064024753,1.0,0.0,0.0,0.0,1.0,0.0,0.0,0.0,1.0,0.0017071282491087914,0.014070921577513213,-0.040396615862846375,1.2184696791468346e-07,0.0,0.0,0.0,1.2184696791468346e-07,0.0,0.0,0.0,1.2184696791468346e-07,0.2157463,0.5197524500000013,10.2773692,8.999999999999999e-08,0.0,0.0,0.0,8.999999999999999e-08,0.0,0.0,0.0,8.999999999999999e-08
1538769448.8737078,1220,1538769448,872750464,base_link,-0.03122113396111963,0.020831487917091215,0.37141959484214454,-0.9277061897350041,1.0,0.0,0.0,0.0,1.0,0.0,0.0,0.0,1.0,-0.043855197727680206,0.03099864348769188,-0.01148578524589539,1.2184696791468346e-07,0.0,0.0,0.0,1.2184696791468346e-07,0.0,0.0,0.0,1.2184696791468346e-07,0.2157463,0.45110590000000117,9.65955025,8.999999999999999e-08,0.0,0.0,0.0,8.999999999999999e-08,0.0,0.0,0.0,8.999999999999999e-08
1538769449.2669463,1221,1538769449,266006976,base_link,-0.035557596216735106,0.015958350905189884,0.37528742936601656,-0.9260887288740327,1.0,0.0,0.0,0.0,1.0,0.0,0.0,0.0,1.0,-0.007949833758175373,0.026076121255755414,-0.07261622697114944,1.2184696791468346e-07,0.0,0.0,0.0,1.2184696791468346e-07,0.0,0.0,0.0,1.2184696791468346e-07,0.196133,0.38245935000000114,9.3751574,8.999999999999999e-08,0.0,0.0,0.0,8.999999999999999e-08,0.0,0.0,0.0,8.999999999999999e-08
1538769449.7512755,1222,1538769449,750231232,base_link,-0.03796397068558198,0.01586914057274878,0.3764052990965743,-0.9255409002952193,1.0,0.0,0.0,0.0,1.0,0.0,0.0,0.0,1.0,-0.026454493403434753,-0.010643187910318376,-0.009461494162678717,1.2184696791468346e-07,0.0,0.0,0.0,1.2184696791468346e-07,0.0,0.0,0.0,1.2184696791468346e-07,0.26477955,0.3824593500000012,9.73800345,8.999999999999999e-08,0.0,0.0,0.0,8.999999999999999e-08,0.0,0.0,0.0,8.999999999999999e-08
1538769450.1537204,1223,1538769450,153434240,base_link,-0.022083298881348877,0.012488940781267535,0.3735932352535154,-0.9272456248705037,1.0,0.0,0.0,0.0,1.0,0.0,0.0,0.0,1.0,-0.3050210475921631,-0.006377088837325572,0.008869645185768604,1.2184696791468346e-07,0.0,0.0,0.0,1.2184696791468346e-07,0.0,0.0,0.0,1.2184696791468346e-07,0.26477955,0.5197524500000011,9.42419065,8.999999999999999e-08,0.0,0.0,0.0,8.999999999999999e-08,0.0,0.0,0.0,8.999999999999999e-08
1538769450.5361776,1224,1538769450,535771328,base_link,0.05801614635143758,-0.01680213285408709,0.37100355748698116,-0.9266650826626017,1.0,0.0,0.0,0.0,1.0,0.0,0.0,0.0,1.0,-0.39706966280937195,-0.029856232926249497,0.043797042220830924,1.2184696791468346e-07,0.0,0.0,0.0,1.2184696791468346e-07,0.0,0.0,0.0,1.2184696791468346e-07,0.2353596,0.46091255000000125,10.24794925,8.999999999999999e-08,0.0,0.0,0.0,8.999999999999999e-08,0.0,0.0,0.0,8.999999999999999e-08
1538769450.9998941,1225,1538769450,999302432,base_link,0.12039528718829319,-0.032258707154968744,0.3461335490557578,-0.9298687632422135,1.0,0.0,0.0,0.0,1.0,0.0,0.0,0.0,1.0,-0.2013952136039734,-0.05770179629325865,0.1389666199684143,1.2184696791468346e-07,0.0,0.0,0.0,1.2184696791468346e-07,0.0,0.0,0.0,1.2184696791468346e-07,0.4118793,0.10787315000000142,11.5326204,8.999999999999999e-08,0.0,0.0,0.0,8.999999999999999e-08,0.0,0.0,0.0,8.999999999999999e-08
1538769451.3820138,1226,1538769451,381641920,base_link,0.1166634918578081,-0.02264935251502366,0.3144119859274891,-0.9418183156019666,1.0,0.0,0.0,0.0,1.0,0.0,0.0,0.0,1.0,0.13005667924880981,-0.057388905435800525,0.22697913646697998,1.2184696791468346e-07,0.0,0.0,0.0,1.2184696791468346e-07,0.0,0.0,0.0,1.2184696791468346e-07,0.46091255,0.27458620000000133,11.0030613,8.999999999999999e-08,0.0,0.0,0.0,8.999999999999999e-08,0.0,0.0,0.0,8.999999999999999e-08
1538769451.714058,1227,1538769451,713481952,base_link,0.08578678185797554,-0.006971619492924613,0.28442540897103047,-0.9548267964985903,1.0,0.0,0.0,0.0,1.0,0.0,0.0,0.0,1.0,0.1989070028066635,-0.058537688106298426,0.16897588968276978,1.2184696791468346e-07,0.0,0.0,0.0,1.2184696791468346e-07,0.0,0.0,0.0,1.2184696791468346e-07,0.4511059,0.23535960000000142,11.77778665,8.999999999999999e-08,0.0,0.0,0.0,8.999999999999999e-08,0.0,0.0,0.0,8.999999999999999e-08
1538769452.1147447,1228,1538769452,114337184,base_link,0.05903083634122098,0.004823326347455222,0.2517610867535234,-0.9659753884444917,1.0,0.0,0.0,0.0,1.0,0.0,0.0,0.0,1.0,0.2247610241174698,0.01940857060253622,0.1305955946445465,1.2184696791468346e-07,0.0,0.0,0.0,1.2184696791468346e-07,0.0,0.0,0.0,1.2184696791468346e-07,0.20593965,0.4314926000000013,10.30678915,8.999999999999999e-08,0.0,0.0,0.0,8.999999999999999e-08,0.0,0.0,0.0,8.999999999999999e-08
1538769452.4530156,1229,1538769452,452683968,base_link,0.015564976729272886,0.012800394348519036,0.23361694085234908,-0.9721198518447864,1.0,0.0,0.0,0.0,1.0,0.0,0.0,0.0,1.0,0.16311928629875183,0.018175158649683013,0.10137487202882767,1.2184696791468346e-07,0.0,0.0,0.0,1.2184696791468346e-07,0.0,0.0,0.0,1.2184696791468346e-07,0.24516625,0.5197524500000013,10.1204628,8.999999999999999e-08,0.0,0.0,0.0,8.999999999999999e-08,0.0,0.0,0.0,8.999999999999999e-08
1538769452.899789,1230,1538769452,899321600,base_link,-0.01768296739499876,0.01543380087552452,0.22697704654681328,-0.973617240395592,1.0,0.0,0.0,0.0,1.0,0.0,0.0,0.0,1.0,0.15120872855186462,0.007777171675115833,0.0789603441953659,1.2184696791468346e-07,0.0,0.0,0.0,1.2184696791468346e-07,0.0,0.0,0.0,1.2184696791468346e-07,0.10787315,0.23535960000000125,10.1204628,8.999999999999999e-08,0.0,0.0,0.0,8.999999999999999e-08,0.0,0.0,0.0,8.999999999999999e-08
1538769453.253485,1231,1538769453,253099008,base_link,-0.029524114451087213,0.014955550142067937,0.2167606349164526,-0.975663612797179,1.0,0.0,0.0,0.0,1.0,0.0,0.0,0.0,1.0,-0.05404353141784668,0.018299717456102378,0.0500401072204113,1.2184696791468346e-07,0.0,0.0,0.0,1.2184696791468346e-07,0.0,0.0,0.0,1.2184696791468346e-07,0.0392266,0.4805258500000012,9.5124505,8.999999999999999e-08,0.0,0.0,0.0,8.999999999999999e-08,0.0,0.0,0.0,8.999999999999999e-08
1538769453.8246121,1232,1538769453,824208352,base_link,-0.0332550623082709,0.0027431024723064885,0.24466170438893264,-0.9690341720626792,1.0,0.0,0.0,0.0,1.0,0.0,0.0,0.0,1.0,0.08603780716657639,0.01901720650494097,-0.1555468887090683,1.2184696791468346e-07,0.0,0.0,0.0,1.2184696791468346e-07,0.0,0.0,0.0,1.2184696791468346e-07,-0.10787315,0.44129925000000086,7.01175475,8.999999999999999e-08,0.0,0.0,0.0,8.999999999999999e-08,0.0,0.0,0.0,8.999999999999999e-08
1538769454.111219,1233,1538769454,110744672,base_link,-0.04842351587834402,0.00695959070592512,0.2501370352811187,-0.966973728075359,1.0,0.0,0.0,0.0,1.0,0.0,0.0,0.0,1.0,0.09351517260074615,7.122196257114951e-05,0.04412727430462837,1.2184696791468346e-07,0.0,0.0,0.0,1.2184696791468346e-07,0.0,0.0,0.0,1.2184696791468346e-07,0.0196133,0.2647795500000013,10.8657682,8.999999999999999e-08,0.0,0.0,0.0,8.999999999999999e-08,0.0,0.0,0.0,8.999999999999999e-08
1538769454.5626442,1234,1538769454,560223584,base_link,-0.04865903777747906,0.0031141557752396424,0.24884493889667825,-0.9673152518501329,1.0,0.0,0.0,0.0,1.0,0.0,0.0,0.0,1.0,0.0971701517701149,0.0073765758424997226,-0.08796074241399765,1.2184696791468346e-07,0.0,0.0,0.0,1.2184696791468346e-07,0.0,0.0,0.0,1.2184696791468346e-07,-0.0980665,0.6668522000000011,9.1201845,8.999999999999999e-08,0.0,0.0,0.0,8.999999999999999e-08,0.0,0.0,0.0,8.999999999999999e-08
1538769454.8317957,1235,1538769454,831317984,base_link,-0.059375099399872164,0.005539438764944836,0.25650585971524215,-0.9647013300090185,1.0,0.0,0.0,0.0,1.0,0.0,0.0,0.0,1.0,0.01534924004226923,0.0052419574931263915,-0.005411269143223763,1.2184696791468346e-07,0.0,0.0,0.0,1.2184696791468346e-07,0.0,0.0,0.0,1.2184696791468346e-07,0.0980665,0.31381280000000134,10.9246081,8.999999999999999e-08,0.0,0.0,0.0,8.999999999999999e-08,0.0,0.0,0.0,8.999999999999999e-08
1538769455.2637362,1236,1538769455,263322400,base_link,-0.05717797756812063,0.002125077762285559,0.2524664532059156,-0.9659124457896527,1.0,0.0,0.0,0.0,1.0,0.0,0.0,0.0,1.0,-0.10872103273868561,-0.003038590773940087,-0.003077102359384298,1.2184696791468346e-07,0.0,0.0,0.0,1.2184696791468346e-07,0.0,0.0,0.0,1.2184696791468346e-07,-0.0588399,0.5197524500000011,9.81645665,8.999999999999999e-08,0.0,0.0,0.0,8.999999999999999e-08,0.0,0.0,0.0,8.999999999999999e-08
1538769455.6537566,1237,1538769455,651715968,base_link,-0.040018574966279793,-0.006028147109007434,0.25700605985931707,-0.9655620437318824,1.0,0.0,0.0,0.0,1.0,0.0,0.0,0.0,1.0,-0.12686263024806976,0.013128096237778657,-0.051648449152708054,1.2184696791468346e-07,0.0,0.0,0.0,1.2184696791468346e-07,0.0,0.0,0.0,1.2184696791468346e-07,-0.04903325,0.5393657500000012,9.7478101,8.999999999999999e-08,0.0,0.0,0.0,8.999999999999999e-08,0.0,0.0,0.0,8.999999999999999e-08
1538769456.0645018,1238,1538769456,64183584,base_link,-0.030190568619335847,-0.007794018418116851,0.26386555462763167,-0.9640553676653595,1.0,0.0,0.0,0.0,1.0,0.0,0.0,0.0,1.0,-0.01001609768718481,-0.00797954760491848,0.004261814057826997,1.2184696791468346e-07,0.0,0.0,0.0,1.2184696791468346e-07,0.0,0.0,0.0,1.2184696791468346e-07,-0.0392266,0.3040061500000012,9.89490985,8.999999999999999e-08,0.0,0.0,0.0,8.999999999999999e-08,0.0,0.0,0.0,8.999999999999999e-08
1538769456.460685,1239,1538769456,460270304,base_link,-0.023870295195661227,-0.006465507935510416,0.260195210823565,-0.9652392752467591,1.0,0.0,0.0,0.0,1.0,0.0,0.0,0.0,1.0,-0.04343961179256439,-0.035118404775857925,0.015277281403541568,1.2184696791468346e-07,0.0,0.0,0.0,1.2184696791468346e-07,0.0,0.0,0.0,1.2184696791468346e-07,0.08825985,0.31381280000000134,10.7284751,8.999999999999999e-08,0.0,0.0,0.0,8.999999999999999e-08,0.0,0.0,0.0,8.999999999999999e-08
1538769456.946967,1240,1538769456,946164352,base_link,-0.016274565850056197,-0.0024369384470054726,0.2498499085287137,-0.9681447324886869,1.0,0.0,0.0,0.0,1.0,0.0,0.0,0.0,1.0,-0.04935796186327934,-0.013319173827767365,0.05369840934872627,1.2184696791468346e-07,0.0,0.0,0.0,1.2184696791468346e-07,0.0,0.0,0.0,1.2184696791468346e-07,-0.02941995,0.4314926000000013,10.0616229,8.999999999999999e-08,0.0,0.0,0.0,8.999999999999999e-08,0.0,0.0,0.0,8.999999999999999e-08
1538769457.3024566,1241,1538769457,301066688,base_link,-0.00747818692427019,-0.0024112629542008346,0.25344313560384374,-0.9673183754827483,1.0,0.0,0.0,0.0,1.0,0.0,0.0,0.0,1.0,-0.006827951408922672,-0.02669066190719605,-0.03213789686560631,1.2184696791468346e-07,0.0,0.0,0.0,1.2184696791468346e-07,0.0,0.0,0.0,1.2184696791468346e-07,-0.04903325,0.4903325000000013,10.4146623,8.999999999999999e-08,0.0,0.0,0.0,8.999999999999999e-08,0.0,0.0,0.0,8.999999999999999e-08
1538769457.592524,1242,1538769457,588402720,base_link,-0.006479778665908139,0.0006717248512612299,0.25287156001046546,-0.9674779250153661,1.0,0.0,0.0,0.0,1.0,0.0,0.0,0.0,1.0,-0.004595206119120121,-0.0215663518756628,0.03544556349515915,1.2184696791468346e-07,0.0,0.0,0.0,1.2184696791468346e-07,0.0,0.0,0.0,1.2184696791468346e-07,-0.0588399,0.42168595000000125,10.1596894,8.999999999999999e-08,0.0,0.0,0.0,8.999999999999999e-08,0.0,0.0,0.0,8.999999999999999e-08
1538769458.0980082,1243,1538769458,97553024,base_link,-0.009356912307188084,0.007028411601570193,0.2486522103143476,-0.9685221360032119,1.0,0.0,0.0,0.0,1.0,0.0,0.0,0.0,1.0,0.10314563661813736,-0.038562826812267297,0.0656706914305687,1.2184696791468346e-07,0.0,0.0,0.0,1.2184696791468346e-07,0.0,0.0,0.0,1.2184696791468346e-07,-0.00980665,0.17651970000000136,11.15016105,8.999999999999999e-08,0.0,0.0,0.0,8.999999999999999e-08,0.0,0.0,0.0,8.999999999999999e-08
1538769458.5292265,1244,1538769458,528955968,base_link,-0.008322190456636992,0.013599768355616585,0.2312444023433829,-0.9727650352636698,1.0,0.0,0.0,0.0,1.0,0.0,0.0,0.0,1.0,0.0031469929963350296,-0.009669224731624118,0.0766553208231926,1.2184696791468346e-07,0.0,0.0,0.0,1.2184696791468346e-07,0.0,0.0,0.0,1.2184696791468346e-07,-0.02941995,0.5785923500000013,10.50292215,8.999999999999999e-08,0.0,0.0,0.0,8.999999999999999e-08,0.0,0.0,0.0,8.999999999999999e-08
1538769458.8881695,1245,1538769458,886857600,base_link,-0.030193526522367863,0.01660978322918083,0.22938210298978567,-0.9727262291545375,1.0,0.0,0.0,0.0,1.0,0.0,0.0,0.0,1.0,0.2140478938817978,0.010949260555207722,-0.05304684489965439,1.2184696791468346e-07,0.0,0.0,0.0,1.2184696791468346e-07,0.0,0.0,0.0,1.2184696791468346e-07,0.02941995,0.4707192000000013,10.2969825,8.999999999999999e-08,0.0,0.0,0.0,8.999999999999999e-08,0.0,0.0,0.0,8.999999999999999e-08
1538769459.2701066,1246,1538769459,268355520,base_link,0.020352245732910917,0.00271392156546385,0.23024949533257366,-0.9729149966068253,1.0,0.0,0.0,0.0,1.0,0.0,0.0,0.0,1.0,-1.1411056518554688,-0.010356608778238283,0.11347398906946182,1.2184696791468346e-07,0.0,0.0,0.0,1.2184696791468346e-07,0.0,0.0,0.0,1.2184696791468346e-07,-0.00980665,0.4314926000000013,10.1596894,8.999999999999999e-08,0.0,0.0,0.0,8.999999999999999e-08,0.0,0.0,0.0,8.999999999999999e-08
1538769459.6296165,1247,1538769459,629317152,base_link,0.2090699348445002,-0.04435709466319346,0.2036119583091519,-0.9554393653867674,1.0,0.0,0.0,0.0,1.0,0.0,0.0,0.0,1.0,-0.7808711528778076,0.0030760765075683746,0.12370682507753372,1.2184696791468346e-07,0.0,0.0,0.0,1.2184696791468346e-07,0.0,0.0,0.0,1.2184696791468346e-07,0.02941995,0.5099458000000012,9.551677100000001,8.999999999999999e-08,0.0,0.0,0.0,8.999999999999999e-08,0.0,0.0,0.0,8.999999999999999e-08
1538769460.144811,1248,1538769460,144536608,base_link,0.3128266990418287,-0.05433922085581109,0.14819522526789836,-0.9366028404031097,1.0,0.0,0.0,0.0,1.0,0.0,0.0,0.0,1.0,-0.18910422921180725,-0.20390149950981137,0.30064278841018677,1.2184696791468346e-07,0.0,0.0,0.0,1.2184696791468346e-07,0.0,0.0,0.0,1.2184696791468346e-07,0.2549729,-0.21574629999999886,9.34573745,8.999999999999999e-08,0.0,0.0,0.0,8.999999999999999e-08,0.0,0.0,0.0,8.999999999999999e-08
1538769460.5034003,1249,1538769460,503036000,base_link,0.35267129678995185,-0.037622260185354,0.05193356007896821,-0.9335472282089232,1.0,0.0,0.0,0.0,1.0,0.0,0.0,0.0,1.0,-0.19089116156101227,-0.3513853251934051,0.4584162831306458,1.2184696791468346e-07,0.0,0.0,0.0,1.2184696791468346e-07,0.0,0.0,0.0,1.2184696791468346e-07,0.6276256,0.1667130500000015,12.09159945,8.999999999999999e-08,0.0,0.0,0.0,8.999999999999999e-08,0.0,0.0,0.0,8.999999999999999e-08
1538769460.912009,1250,1538769460,909643200,base_link,0.39211237700970286,0.003810129742419347,-0.05354012527173718,-0.9183500540061145,1.0,0.0,0.0,0.0,1.0,0.0,0.0,0.0,1.0,-0.18237118422985077,-0.4296914637088775,0.39367091655731207,1.2184696791468346e-07,0.0,0.0,0.0,1.2184696791468346e-07,0.0,0.0,0.0,1.2184696791468346e-07,1.2160246,0.06864655000000176,14.38635555,8.999999999999999e-08,0.0,0.0,0.0,8.999999999999999e-08,0.0,0.0,0.0,8.999999999999999e-08
1538769461.3164454,1251,1538769461,316112608,base_link,0.3937537839460404,0.06379011517699414,-0.15468514437441794,-0.9038591067991439,1.0,0.0,0.0,0.0,1.0,0.0,0.0,0.0,1.0,0.0329064279794693,-0.5148740410804749,0.33735343813896185,1.2184696791468346e-07,0.0,0.0,0.0,1.2184696791468346e-07,0.0,0.0,0.0,1.2184696791468346e-07,1.67693715,1.9359608242967726e-15,15.8083198,8.999999999999999e-08,0.0,0.0,0.0,8.999999999999999e-08,0.0,0.0,0.0,8.999999999999999e-08
1538769461.6771746,1252,1538769461,676708288,base_link,0.38096318497839704,0.12060962114605979,-0.24869195048825887,-0.8823109909439331,1.0,0.0,0.0,0.0,1.0,0.0,0.0,0.0,1.0,-0.04384125769138336,-0.5199046730995178,0.4383723735809327,1.2184696791468346e-07,0.0,0.0,0.0,1.2184696791468346e-07,0.0,0.0,0.0,1.2184696791468346e-07,1.93191005,-0.3040061499999981,15.64160675,8.999999999999999e-08,0.0,0.0,0.0,8.999999999999999e-08,0.0,0.0,0.0,8.999999999999999e-08
1538769462.1235726,1253,1538769462,121099488,base_link,0.37247955041099773,0.19050152681803048,-0.3723490410085864,-0.8284469472848617,1.0,0.0,0.0,0.0,1.0,0.0,0.0,0.0,1.0,-0.26153889298439026,-0.5423453450202942,0.3388876020908356,1.2184696791468346e-07,0.0,0.0,0.0,1.2184696791468346e-07,0.0,0.0,0.0,1.2184696791468346e-07,1.96133,0.48052585000000214,17.6715833,8.999999999999999e-08,0.0,0.0,0.0,8.999999999999999e-08,0.0,0.0,0.0,8.999999999999999e-08
1538769462.5662866,1254,1538769462,565484576,base_link,0.34640468073095226,0.27596123677459683,-0.477717960744324,-0.7587059660684147,1.0,0.0,0.0,0.0,1.0,0.0,0.0,0.0,1.0,0.09296759963035583,-0.631101131439209,0.403852790594101,1.2184696791468346e-07,0.0,0.0,0.0,1.2184696791468346e-07,0.0,0.0,0.0,1.2184696791468346e-07,2.353596,-0.3726526999999978,18.3580488,8.999999999999999e-08,0.0,0.0,0.0,8.999999999999999e-08,0.0,0.0,0.0,8.999999999999999e-08
1538769462.813027,1255,1538769462,812177728,base_link,0.31993636796975444,0.31323040498811644,-0.5491343657044471,-0.7056761879528577,1.0,0.0,0.0,0.0,1.0,0.0,0.0,0.0,1.0,-0.04597635567188263,-0.6508100032806395,0.5213785767555238,1.2184696791468346e-07,0.0,0.0,0.0,1.2184696791468346e-07,0.0,0.0,0.0,1.2184696791468346e-07,2.157463,0.08825985000000233,19.05432095,8.999999999999999e-08,0.0,0.0,0.0,8.999999999999999e-08,0.0,0.0,0.0,8.999999999999999e-08
1538769463.3189778,1256,1538769463,318407584,base_link,0.23639185353592396,0.3745773599057931,-0.67381180850097,-0.5914290656980838,1.0,0.0,0.0,0.0,1.0,0.0,0.0,0.0,1.0,0.34297075867652893,-0.549248218536377,0.17795920372009283,1.2184696791468346e-07,0.0,0.0,0.0,1.2184696791468346e-07,0.0,0.0,0.0,1.2184696791468346e-07,2.1770763,0.500139150000002,16.42613875,8.999999999999999e-08,0.0,0.0,0.0,8.999999999999999e-08,0.0,0.0,0.0,8.999999999999999e-08
